"address","price","postal_code","residence_type","floor_size","number_of_bathrooms","number_of_bedrooms","street_address","latitude","longitude","year_built","garage","pool","house_type"
"0 Coolidge Ave #CH, Boston, MA 02114 - Condo For Sale","1495000","2114","SingleFamilyResidence","1360","2 / 1","3","0 Coolidge Ave #CH","42.360329","-71.063728","1850","0","community-pool","condominium"
"40 Hancock St #1, Boston, MA 02125 - Condo For Sale","379900","2125","SingleFamilyResidence","700","1","1","40 Hancock St #1","42.314373","-71.065426","2006","0","0.02 acres","condominium"
"7 Commonwealth Ct #5, Boston, MA 02135 - Condo For Sale","380000","2135","SingleFamilyResidence","686","1","1","7 Commonwealth Ct #5","42.346052","-71.14028","1964","0","No","condominium"
"30 Copeland St #1, Boston, MA 02119 - Condo For Sale","699000","2119","SingleFamilyResidence","1416","2 / 1","3","30 Copeland St #1","42.322363","-71.08086","1890","1","community-pool","condominium"
"135 Marlborough St #3, Boston, MA 02116 - Condo For Sale","899000","2116","SingleFamilyResidence","765","1","1","135 Marlborough St #3","42.353215","-71.078353","1880","0","No","condominium"
"Open House: 11:30 AM - 1:00 PM at 135 Marlborough St #3","899000","","v","","","","","","","","","",""
"133 Seaport Blvd #708, Boston, MA 02210 - Condo For Sale","2679000","2210","SingleFamilyResidence","1494","2 / 1","2","133 Seaport Blvd #708","42.350508","-71.043615","2018","2","community-pool, private-pool","condominium"
"240 Devonshire St #3708, Boston, MA 02110 - Condo For Sale","2985000","2110","SingleFamilyResidence","1667","2 / 1","2","240 Devonshire St #3708","42.35458","-71.057112","2023","1","No","condominium"
"240 Devonshire St #4107, Boston, MA 02110 - Condo For Sale","1495000","2110","SingleFamilyResidence","781","1","1","240 Devonshire St #4107","42.35458","-71.057112","2023","0","No","condominium"
"240 Devonshire St #5412, Boston, MA 02110 - Condo For Sale","4275000","2110","SingleFamilyResidence","1989","3","3","240 Devonshire St #5412","42.35458","-71.057112","2023","1","community-pool","condominium"
"400 Stuart St #17K, Boston, MA 02116 - Condo For Sale","1300000","2116","SingleFamilyResidence","850","1","1","400 Stuart St #17K","42.348908","-71.073778","2009","1","No","condominium"
"106 Forest Hills St #103, Boston, MA 02130 - Condo For Sale","719000","2130","SingleFamilyResidence","894","2","2","106 Forest Hills St #103","42.308259","-71.102215","2021","1","No","condominium"
"52 Withington St #4, Dorchester Center, MA 02124 - Condo For Sale","599999","2124","SingleFamilyResidence","1010","2","3","52 Withington St #4","42.287881","-71.072503","2023","0","No","condominium"
"Open House: 11:00 AM - 12:30 PM at 52 Withington St #4","599999","","v","","","","","","","","","",""
"Open House: 11:00 AM - 12:30 PM at 52 Withington St #4","599999","","v","","","","","","","","","",""
"22 Liberty Dr #7A, Boston, MA 02210 - Home For Sale","6195000","2210","SingleFamilyResidence","2027","2 / 1","2","22 Liberty Dr #7A","42.354597","-71.045273","2015","2","No","home"
"195 Marlborough St #1, Boston, MA 02116 - Condo For Sale","2390000","2116","SingleFamilyResidence","1566","2 / 1","2","195 Marlborough St #1","42.352563","-71.080628","1884","1","No","condominium"
"Open House: 12:00 PM - 1:00 PM at 195 Marlborough St #1","2390000","","v","","","","","","","","","",""
"220 Boylston St #1106, Boston, MA 02116 - Condo For Sale","1595000","2116","SingleFamilyResidence","938","1","1","220 Boylston St #1106","42.352148","-71.068301","1985","1","community-pool","condominium"
"7 Waumbeck St #3, Boston, MA 02121 - Condo For Sale","699000","2121","SingleFamilyResidence","1500","2","4","7 Waumbeck St #3","42.313597","-71.084296","2023","0","0.12 acres","condominium"
"52 Withington St #5, Dorchester Center, MA 02124 - Condo For Sale","699999","2124","SingleFamilyResidence","1450","2","3","52 Withington St #5","42.287881","-71.072503","2023","0","No","condominium"
"Open House: 11:00 AM - 12:30 PM at 52 Withington St #5","699999","","v","","","","","","","","","",""
"Open House: 11:00 AM - 12:30 PM at 52 Withington St #5","699999","","v","","","","","","","","","",""
"472 W Broadway #204, Boston, MA 02127 - Condo For Sale","899000","2127","SingleFamilyResidence","897","2","2","472 W Broadway #204","42.335888","-71.045809","2022","1","No","condominium"
"642 Canterbury St #642, Boston, MA 02131 - Home For Sale","500000","2131","SingleFamilyResidence","1272","1 / 1","2","642 Canterbury St #642","42.286702","-71.110025","1987","2","0.03 acres","home"
"Open House: 5:30 PM - 7:00 PM at 642 Canterbury St #642","500000","","v","","","","","","","","","",""
"Open House: 11:00 AM - 1:00 PM at 642 Canterbury St #642","500000","","v","","","","","","","","","",""
"Open House: 1:00 PM - 3:00 PM at 642 Canterbury St #642","500000","","v","","","","","","","","","",""
"425 Lagrange St #110, Boston, MA 02132 - Condo For Sale","625000","2132","SingleFamilyResidence","941","2","2","425 Lagrange St #110","42.281012","-71.158949","2023","2","0.62 acres","condominium"
"Open House: 12:00 PM - 1:00 PM at 425 Lagrange St #110","625000","","v","","","","","","","","","",""
"45 Province St #2802, Boston, MA 02108 - Condo For Sale","2349000","2108","SingleFamilyResidence","1636","2","2","45 Province St #2802","42.357328","-71.059945","2009","1","0.04 acres","condominium"
"Open House: 12:00 PM - 2:00 PM at 45 Province St #2802","2349000","","v","","","","","","","","","",""
"Open House: 5:00 PM - 7:00 PM at 45 Province St #2802","2349000","","v","","","","","","","","","",""
"Open House: 12:00 PM - 2:00 PM at 45 Province St #2802","2349000","","v","","","","","","","","","",""
"Open House: 12:00 PM - 2:00 PM at 45 Province St #2802","2349000","","v","","","","","","","","","",""
"100 Belvidere St #4G, Boston, MA 02199 - Condo For Sale","5595000","2199","SingleFamilyResidence","2654","2 / 1","3","100 Belvidere St #4G","42.345855","-71.082231","2001","2","No","condominium"
"9 Jenkins St, Boston, MA 02127 - Single-Family Home For Sale","749000","2127","SingleFamilyResidence","1292","1","3","9 Jenkins St","42.330745","-71.053736","1905","0","No","single-family-home"
"202 K St #4, Boston, MA 02127 - Condo For Sale","599000","2127","SingleFamilyResidence","700","1","1","202 K St #4","42.336347","-71.037218","1899","0","No","condominium"
"98 Chestnut St #3, Boston, MA 02108 - Condo For Sale","2350000","2108","SingleFamilyResidence","1445","2","3","98 Chestnut St #3","42.356682","-71.070832","1875","0","No","condominium"
"6 Middleton St, Boston, MA 02124 - Single-Family Home For Sale","729000","2124","SingleFamilyResidence","1030","1","3","6 Middleton St","42.282616","-71.086521","1900","0","0.06 acres","single-family-home"
"95 Cowper St #3, Boston, MA 02128 - Condo For Sale","549000","2128","SingleFamilyResidence","750","1","1","95 Cowper St #3","42.380681","-71.01692","1895","0","No","condominium"
"121 Portland St #411, Boston, MA 02114 - Condo For Sale","825900","2114","SingleFamilyResidence","930","1 / 1","1","121 Portland St #411","42.363584","-71.060502","2017","0","No","condominium"
"472 Norfolk St, Boston, MA 02126 - Single-Family Home For Sale","799000","2126","SingleFamilyResidence","3007","1 / 2","6","472 Norfolk St","42.280171","-71.088102","1925","0","0.15 acres","single-family-home"
"220 Boylston St #1008, Boston, MA 02116 - Condo For Sale","3290000","2116","SingleFamilyResidence","1807","3","2","220 Boylston St #1008","42.352148","-71.068301","1985","1","community-pool, private-pool","condominium"
"4 Shelby St #1, East Boston, MA 02128 - Condo For Sale","435000","2128","SingleFamilyResidence","705","1","2","4 Shelby St #1","42.381196","-71.027978","1915","0","No","condominium"
"121 Portland St #205, Boston, MA 02114 - Condo For Sale","855999","2114","SingleFamilyResidence","954","1 / 1","1","121 Portland St #205","42.36356","-71.060838","2017","1","community-pool","condominium"
"76 Wareham St #5F, Boston, MA 02118 - Condo For Sale","2375000","2118","SingleFamilyResidence","1664","2","2","76 Wareham St #5F","42.339057","-71.067012","2022","1","No","condominium"
"14 Wellington St #2, Boston, MA 02118 - Condo For Sale","2590000","2118","SingleFamilyResidence","1750","2","3","14 Wellington St #2","42.341531","-71.08205","1880","2","No","condominium"
"Open House: 1:00 PM - 2:30 PM at 14 Wellington St #2","2590000","","v","","","","","","","","","",""
"Open House: 12:00 PM - 2:00 PM at 14 Wellington St #2","2590000","","v","","","","","","","","","",""
"Open House: 10:00 AM - 12:00 PM at 14 Wellington St #2","2590000","","v","","","","","","","","","",""
"257 Emerson St, Boston, MA 02127 - Single-Family Home For Sale","1250000","2127","SingleFamilyResidence","1860","2 / 2","3","257 Emerson St","42.334285","-71.036069","1890","0","0.02 acres","multi-story"
"Open House: 1:30 PM - 2:30 PM at 257 Emerson St","1250000","","v","","","","","","","","","",""
"Open House: 2:30 PM - 3:30 PM at 257 Emerson St","1250000","","v","","","","","","","","","",""
"240 Devonshire St #4305, Boston, MA 02110 - Condo For Sale","1975000","2110","SingleFamilyResidence","1035","1 / 1","1","240 Devonshire St #4305","42.35458","-71.057112","2023","0","community-pool","condominium"
"240 Devonshire St #5709, Boston, MA 02110 - Condo For Sale","3320000","2110","SingleFamilyResidence","1675","2","2","240 Devonshire St #5709","42.35458","-71.057112","2023","1","community-pool","condominium"
"240 Devonshire St #4202, Boston, MA 02110 - Condo For Sale","4800000","2110","SingleFamilyResidence","2212","3","2","240 Devonshire St #4202","42.35458","-71.057112","2023","1","community-pool","condominium"
"18 Wenham St, Boston, MA 02130 - Single-Family Home For Sale","950000","2130","SingleFamilyResidence","2019","2","4","18 Wenham St","42.296043","-71.115361","1910","0","0.10 acres","single-family-home"
"8 Grouse St, Boston, MA 02132 - Single-Family Home For Sale","825000","2132","SingleFamilyResidence","2400","3 / 1","3","8 Grouse St","42.26998","-71.148829","1997","2","0.11 acres","single-family-home"
"2 Avery St #22A, Boston, MA 02111 - Condo For Sale","999000","2111","SingleFamilyResidence","803","1 / 1","1","2 Avery St #22A","42.35287","-71.062998","2000","1","No","condominium"
"1688 Washington St #4, Boston, MA 02118 - Condo For Sale","1695000","2118","SingleFamilyResidence","1681","2","2","1688 Washington St #4","42.337124","-71.07566","1910","0","0.04 acres","condominium"
"300 Pier 4 Blvd #5H, Boston, MA 02210 - Condo For Sale","3300000","2210","SingleFamilyResidence","1456","2 / 1","2","300 Pier 4 Blvd #5H","42.35257","-71.042364","2017","2","No","condominium"
"133 Seaport Blvd #1108, Boston, MA 02210 - Condo For Sale","2799000","2210","SingleFamilyResidence","1495","2 / 1","3","133 Seaport Blvd #1108","42.350508","-71.043615","2018","2","community-pool","condominium"
"197 8th St #902, Boston, MA 02129 - Condo For Sale","1599000","2129","SingleFamilyResidence","1635","2","2","197 8th St #902","42.373408","-71.052191","1989","1","community-pool","condominium"
"19 Dwight St #1, Boston, MA 02118 - Condo For Sale","895000","2118","SingleFamilyResidence","804","2","2","19 Dwight St #1","42.344251","-71.068313","1899","1","0.02 acres","condominium"
"23 Eliot St #1, Boston, MA 02130 - Condo For Sale","3100000","2130","SingleFamilyResidence","4396","4","4","23 Eliot St #1","42.311367","-71.116741","1890","2","0.34 acres","condominium"
"161 Brown Ave, Boston, MA 02131 - Single-Family Home For Sale","625000","2131","SingleFamilyResidence","1547","2","5","161 Brown Ave","42.284824","-71.120419","1900","0","0.08 acres","single-family-home"
"22 Whitman St, Boston, MA 02124 - Single-Family Home For Sale","684900","2124","SingleFamilyResidence","2080","2 / 1","5","22 Whitman St","42.286586","-71.076704","1900","2","0.09 acres","single-family-home"
"1210 Vfw Pkwy #12, Boston, MA 02132 - Condo For Sale","425000","2132","SingleFamilyResidence","1072","2","2","1210 Vfw Pkwy #12","42.278925","-71.170974","1986","0","No","condominium"
"133 Mattapan St, Boston, MA 02126 - Single-Family Home For Sale","699000","2126","SingleFamilyResidence","1787","3 / 1","4","133 Mattapan St","42.280115","-71.097804","1920","3","0.09 acres","single-family-home"
"300 Boylston St #907, Boston, MA 02116 - Condo For Sale","2600000","2116","SingleFamilyResidence","1840","2 / 1","2","300 Boylston St #907","42.351864","-71.069825","1988","1","community-pool","condominium"
"11 Telegraph St #1, Boston, MA 02127 - Condo For Sale","599000","2127","SingleFamilyResidence","858","1 / 1","2","11 Telegraph St #1","42.332809","-71.050361","1896","0","No","condominium"
"560 E 5th St #CH, Boston, MA 02127 - Condo For Sale","1250000","2127","SingleFamilyResidence","1293","2","2","560 E 5th St #CH","42.33406","-71.03803","1900","1","No","condominium"
"18 Ayles Rd, Boston, MA 02136 - Single-Family Home For Sale","519900","2136","SingleFamilyResidence","1305","1 / 1","3","18 Ayles Rd","42.266355","-71.112845","1950","0","0.15 acres","multi-story"
"9 S Russell St #4, Boston, MA 02114 - Condo For Sale","999000","2114","SingleFamilyResidence","944","1","2","9 S Russell St #4","42.360886","-71.066056","1920","0","0.02 acres","condominium"
"98 Chestnut St #4, Boston, MA 02108 - Condo For Sale","2299000","2108","SingleFamilyResidence","1389","2","2","98 Chestnut St #4","42.356682","-71.070832","1880","1","0.03 acres","condominium"
"12 Stoneholm St #319, Boston, MA 02115 - Home For Sale","449000","2115","SingleFamilyResidence","440","1","1","12 Stoneholm St #319","42.345821","-71.088631","2006","0","0.01 acres","home"
"300 Pier 4 Blvd #4A, Boston, MA 02210 - Condo For Sale","2395000","2210","SingleFamilyResidence","1035","1 / 1","1","300 Pier 4 Blvd #4A","42.35257","-71.042364","2019","1","No","condominium"
"218 Florence St #D, Boston, MA 02131 - Condo For Sale","414900","2131","SingleFamilyResidence","1074","1 / 1","2","218 Florence St #D","42.286313","-71.119883","1987","0","No","condominium"
"150 Seaport Blvd #5A, Boston, MA 02210 - Condo For Sale","1875000","2210","SingleFamilyResidence","996","1 / 1","1","150 Seaport Blvd #5A","42.350754","-71.042766","2022","0","community-pool","condominium"
"70-72 Northampton #206, Boston, MA 02118 - Condo For Sale","799000","2118","SingleFamilyResidence","1009","1","1","70-72 Northampton #206","42.334731","-71.076303","1899","1","No","condominium"
"51 Walk Hill St #3, Boston, MA 02130 - Condo For Sale","720000","2130","SingleFamilyResidence","1065","2","2","51 Walk Hill St #3","42.29407","-71.114843","1910","0","No","condominium"
"Open House: 12:00 PM - 1:30 PM at 51 Walk Hill St #3","720000","","v","","","","","","","","","",""
"Open House: 12:00 PM - 1:30 PM at 51 Walk Hill St #3","720000","","v","","","","","","","","","",""
"80 Terrace St #301, Boston, MA 02120 - Condo For Sale","889000","2120","SingleFamilyResidence","1081","2","2","80 Terrace St #301","42.329347","-71.097456","2023","1","0.11 acres","condominium"
"51 Hutchings St #1, Boston, MA 02121 - Condo For Sale","999900","2121","SingleFamilyResidence","3717","3","3","51 Hutchings St #1","42.310818","-71.08984","1905","1","No","condominium"
"80 Terrace St #303, Boston, MA 02120 - Condo For Sale","949000","2120","SingleFamilyResidence","1157","2","2","80 Terrace St #303","42.329347","-71.097456","2023","1","0.11 acres","condominium"
"80 Terrace St #302, Boston, MA 02120 - Condo For Sale","849000","2120","SingleFamilyResidence","1065","2","2","80 Terrace St #302","42.329347","-71.097456","2023","1","0.11 acres","condominium"
"85 E India Row #30C, Boston, MA 02110 - Condo For Sale","1499000","2110","SingleFamilyResidence","1236","2 / 1","2","85 E India Row #30C","42.358122","-71.049823","1972","1","community-pool","condominium"
"192-194 Highland St #1, Boston, MA 02119 - Condo For Sale","600000","2119","SingleFamilyResidence","1566","2","3","192-194 Highland St #1","42.32312","-71.093442","1890","0","0.04 acres","condominium"
"9 Greenmount St #3, Dorchester, MA 02125 - Condo For Sale","999000","2125","SingleFamilyResidence","2042","3 / 1","4","9 Greenmount St #3","42.31024","-71.058515","2023","1","No","condominium"
"44 Phillips St #1, Boston, MA 02114 - Condo For Sale","1699000","2114","SingleFamilyResidence","1400","2 / 1","3","44 Phillips St #1","42.360242","-71.068298","1899","0","No","condominium"
"8 Whittier Pl #10D, Boston, MA 02114 - Condo For Sale","519900","2114","SingleFamilyResidence","937","1","1","8 Whittier Pl #10D","42.365484","-71.06728","1964","1","community-pool","condominium"
"35-37 Elm St #37, Boston, MA 02129 - Single-Family Home For Sale","2599000","2129","SingleFamilyResidence","3020","4 / 1","4","35-37 Elm St #37","42.377894","-71.06331","1865","0","No","multi-story"
"142 Bigelow St #203, Boston, MA 02135 - Home For Sale","599000","2135","SingleFamilyResidence","1180","1","1","142 Bigelow St #203","42.356518","-71.165853","2006","1","No","home"
"80 E Brookline St #2, Boston, MA 02118 - Condo For Sale","650000","2118","SingleFamilyResidence","587","1","1","80 E Brookline St #2","42.337703","-71.069993","1935","0","0.01 acres","condominium"
"248 Gold St, Boston, MA 02127 - Condo For Sale","980000","2127","SingleFamilyResidence","1010","2 / 1","2","248 Gold St","42.335637","-71.048535","1890","0","community-pool","condominium"
"37 Beacon St #55, Boston, MA 02108 - Condo For Sale","979000","2108","SingleFamilyResidence","850","1","1","37 Beacon St #55","42.357291","-71.065677","1920","1","No","condominium"
"1154 Washington St #3/1A, Boston, MA 02118 - Condo For Sale","3195000","2118","SingleFamilyResidence","2661","3 / 1","3","1154 Washington St #3/1A","42.343419","-71.065887","1899","2","0.06 acres","condominium"
"18 Cooper St #1, Boston, MA 02113 - Home For Sale","1200000","2113","SingleFamilyResidence","1477","2 / 1","2","18 Cooper St #1","42.364361","-71.056254","1899","0","community-pool","home"
"2757 Washington St #1, Boston, MA 02119 - Condo For Sale","725000","2119","SingleFamilyResidence","1666","2","3","2757 Washington St #1","42.322558","-71.091071","2017","2","community-pool","condominium"
"116 School St #2, Roxbury, MA 02119 - Condo For Sale","1169000","2119","SingleFamilyResidence","2103","2 / 1","3","116 School St #2","42.315597","-71.100842","2023","1","No","condominium"
"275 Beacon St #2B, Boston, MA 02116 - Condo For Sale","759000","2116","SingleFamilyResidence","662","1","2","275 Beacon St #2B","42.353173","-71.08007","1886","0","0.02 acres","condominium"
"44 Cottage St #2, Boston, MA 02128 - Condo For Sale","799000","2128","SingleFamilyResidence","1138","2","2","44 Cottage St #2","42.366925","-71.036068","2023","0","No","condominium"
"18 Symphony Rd, Boston, MA 02115 - Single-Family Home For Sale","2300000","2115","SingleFamilyResidence","2861","1 / 1","5","18 Symphony Rd","42.342695","-71.087736","1880","0","0.03 acres","multi-story"
"14 Monument St #3, Boston, MA 02129 - Condo For Sale","539900","2129","SingleFamilyResidence","655","1","1","14 Monument St #3","42.377621","-71.06028","1899","0","No","condominium"
"19 Aldrich St, Boston, MA 02131 - Single-Family Home For Sale","899000","2131","SingleFamilyResidence","1685","1 / 1","3","19 Aldrich St","42.285641","-71.140094","1920","2","0.10 acres","single-family-home"
"566 Columbus Ave #403, Boston, MA 02118 - Condo For Sale","1550000","2118","SingleFamilyResidence","1181","2","2","566 Columbus Ave #403","42.340805","-71.081022","2023","1","No","condominium"
"15 North Beacon St #205, Boston, MA 02134 - Condo For Sale","453800","2134","SingleFamilyResidence","699","1","1","15 North Beacon St #205","42.354182","-71.137774","1989","1","community-pool","condominium"
"73 Chelsea St #104, Boston, MA 02129 - Home For Sale","685000","2129","SingleFamilyResidence","763","1 / 1","1","73 Chelsea St #104","42.373316","-71.058367","2000","1","No","home"
"141 Arlington St #6, Boston, MA 02116 - Condo For Sale","474900","2116","SingleFamilyResidence","330","1","1","141 Arlington St #6","42.348586","-71.06957","1899","0","0.01 acres","condominium"
"32 River St, Boston, MA 02108 - Home For Sale","4950000","2108","SingleFamilyResidence","3517","4 / 1","4","32 River St","42.357082","-71.070477","1900","1","No","home"
"Open House: 12:00 PM - 1:30 PM at 32 River St","4950000","","v","","","","","","","","","",""
"44 Ramsdell Ave, Boston, MA 02131 - Single-Family Home For Sale","749000","2131","SingleFamilyResidence","1509","2","3","44 Ramsdell Ave","42.276136","-71.117441","1926","0","0.12 acres","single-family-home"
"73 Sheridan #C-2, Boston, MA 02130 - Condo For Sale","1159000","2130","SingleFamilyResidence","1330","2","3","73 Sheridan #C-2","42.320265","-71.107044","2023","0","0.45 acres","condominium"
"4 Payne St #4, Boston, MA 02122 - Condo For Sale","989000","2122","SingleFamilyResidence","1621","3","3","4 Payne St #4","42.294908","-71.050659","2021","2","No","condominium"
"449-463 Washington St #8A, Boston, MA 02111 - Condo For Sale","995000","2111","SingleFamilyResidence","1667","2","2","449-463 Washington St #8A","42.355318","-71.060991","1900","0","0.04 acres","condominium"
"330 C St, Boston, MA 02127 - Land For Sale","7500000","2127","SingleFamilyResidence","0","0","0","330 C St","42.342286","-71.0498","not available","0","0.19 acres","land"
"1672 Washington St #102, Boston, MA 02118 - Condo For Sale","1195000","2118","SingleFamilyResidence","1054","2","2","1672 Washington St #102","42.33739","-71.075263","2013","1","No","condominium"
"276 Marlborough St #3, Boston, MA 02116 - Condo For Sale","3695000","2116","SingleFamilyResidence","2605","3 / 1","4","276 Marlborough St #3","42.351518","-71.082879","1939","0","0.06 acres","condominium"
"280 Beacon St #42, Boston, MA 02116 - Home For Sale","949000","2116","SingleFamilyResidence","765","1","1","280 Beacon St #42","42.353311","-71.081208","1930","1","0.02 acres","home"
"295 Beacon St #42, Boston, MA 02116 - Home For Sale","1575000","2116","SingleFamilyResidence","1131","2","2","295 Beacon St #42","42.352934","-71.080949","1885","0","No","home"
"431 E 3rd St #3, Boston, MA 02127 - Condo For Sale","765000","2127","SingleFamilyResidence","790","1","2","431 E 3rd St #3","42.336226","-71.042964","1890","0","0.02 acres","condominium"
"332 Jamaicaway #206, Boston, MA 02130 - Condo For Sale","394900","2130","SingleFamilyResidence","463","1","1","332 Jamaicaway #206","42.320387","-71.116387","1920","1","No","condominium"
"35 Sparrow St, Boston, MA 02132 - Single-Family Home For Sale","789000","2132","SingleFamilyResidence","1305","2","3","35 Sparrow St","42.272687","-71.148542","1963","2","0.08 acres","single-family-home"
"66 Kenwood St, Boston, MA 02124 - Single-Family Home For Sale","725000","2124","SingleFamilyResidence","2680","1 / 1","4","66 Kenwood St","42.292627","-71.068742","1895","0","0.08 acres","single-family-home"
"296-298 Kittredge Street, Boston, MA 02131 - Single-Family Home For Sale","699000","2131","SingleFamilyResidence","1509","1 / 1","4","296-298 Kittredge Street","42.277547","-71.133625","1930","0","0.14 acres","single-family-home"
"95 Cowper St #2, Boston, MA 02128 - Condo For Sale","665000","2128","SingleFamilyResidence","1000","2","3","95 Cowper St #2","42.380681","-71.01692","1895","0","No","condominium"
"435 Shawmut Ave #3, Boston, MA 02118 - Condo For Sale","999000","2118","SingleFamilyResidence","922","1","1","435 Shawmut Ave #3","42.339839","-71.074593","1900","1","0.02 acres","condominium"
"6 Goodrich Rd #1, Boston, MA 02130 - Condo For Sale","575000","2130","SingleFamilyResidence","802","1","2","6 Goodrich Rd #1","42.315482","-71.114516","1930","1","No","condominium"
"234 Causeway St #815, Boston, MA 02114 - Condo For Sale","975000","2114","SingleFamilyResidence","1120","1","2","234 Causeway St #815","42.366688","-71.059341","2003","1","community-pool","condominium"
"405 W 1st St #302, Boston, MA 02127 - Condo For Sale","1225000","2127","SingleFamilyResidence","1719","2","2","405 W 1st St #302","42.337431","-71.043766","2015","1","No","condominium"
"179 Hebron St, Boston, MA 02126 - Land For Sale","1900000","2126","SingleFamilyResidence","0","0","0","179 Hebron St","42.273268","-71.107368","not available","0","0.60 acres","land"
"604 Freeport St #PH5, Boston, MA 02122 - Condo For Sale","718000","2122","SingleFamilyResidence","1270","2","2","604 Freeport St #PH5","42.290913","-71.048095","2004","0","0.30 acres","condominium"
"57 Fulton St #7, Boston, MA 02109 - Condo For Sale","840000","2109","SingleFamilyResidence","1082","1 / 1","1","57 Fulton St #7","42.361732","-71.053468","1850","0","community-pool","condominium"
"125 Bartlett St, Boston, MA 02129 - Single-Family Home For Sale","1399000","2129","SingleFamilyResidence","1725","2 / 1","3","125 Bartlett St","42.3794265","-71.0664989","1920","0","community-pool","single-family-home"
"246 S Huntington Ave #5, Boston, MA 02130 - Condo For Sale","419000","2130","SingleFamilyResidence","582","1","1","246 S Huntington Ave #5","42.324683","-71.111881","1935","0","No","condominium"
"35 Beachview Rd, Boston, MA 02128 - Single-Family Home For Sale","799900","2128","SingleFamilyResidence","2481","2","3","35 Beachview Rd","42.390885","-71.003137","1980","0","0.11 acres","single-family-home"
"21 Atwood Sq #2, Boston, MA 02130 - Condo For Sale","620000","2130","SingleFamilyResidence","758","1","2","21 Atwood Sq #2","42.307105","-71.11655","1925","1","community-pool","condominium"
"372 Amory St #5, Boston, MA 02130 - Condo For Sale","1019000","2130","SingleFamilyResidence","2016","2 / 1","2","372 Amory St #5","42.312296","-71.105674","2002","0","0.05 acres","condominium"
"19 Pond St #1, Boston, MA 02125 - Condo For Sale","575000","2125","SingleFamilyResidence","1020","1","2","19 Pond St #1","42.319135","-71.059271","1905","0","0.02 acres","condominium"
"3171 Washington St #302, Boston, MA 02130 - Condo For Sale","899000","2130","SingleFamilyResidence","1262","1 / 1","2","3171 Washington St #302","42.313483","-71.100822","2022","0","No","condominium"
"251 Heath St #215, Boston, MA 02130 - Condo For Sale","649900","2130","SingleFamilyResidence","1123","1","1","251 Heath St #215","42.327694","-71.108552","1900","1","0.03 acres","condominium"
"82 Carolina Ave #1, Boston, MA 02130 - Condo For Sale","650000","2130","SingleFamilyResidence","1116","1","2","82 Carolina Ave #1","42.308035","-71.112242","1905","0","0.10 acres","condominium"
"22 Liberty Dr #11G, Boston, MA 02210 - Condo For Sale","2195000","2210","SingleFamilyResidence","1177","1 / 1","1","22 Liberty Dr #11G","42.354597","-71.045273","2015","1","No","condominium"
"22 Liberty Dr #PH1D, Boston, MA 02210 - Condo For Sale","9475000","2210","SingleFamilyResidence","2383","3 / 1","3","22 Liberty Dr #PH1D","42.354597","-71.045273","2015","2","No","condominium"
"47R Creighton St #3, Boston, MA 02130 - Condo For Sale","649950","2130","SingleFamilyResidence","2075","2","5","47R Creighton St #3","42.323967","-71.107297","1905","0","0.03 acres","condominium"
"24 Manthorne Rd, Boston, MA 02132 - Single-Family Home For Sale","875000","2132","SingleFamilyResidence","1777","1 / 1","4","24 Manthorne Rd","42.288134","-71.150582","1925","4","0.14 acres","single-family-home"
"43-47 Fremont St, Boston, MA 02126 - Land For Sale","699000","2126","SingleFamilyResidence","0","0","0","43-47 Fremont St","42.270715","-71.091718","not available","0","0.28 acres","land"
"100 Shawmut Ave #504, Boston, MA 02118 - Condo For Sale","1979900","2118","SingleFamilyResidence","1712","2","3","100 Shawmut Ave #504","42.346582","-71.065599","2021","2","No","condominium"
"100 Shawmut Ave #UNIT 704, Boston, MA 02118 - Condo For Sale","2099900","2118","SingleFamilyResidence","1449","2","2","100 Shawmut Ave #UNIT 704","42.346582","-71.065599","2021","2","No","condominium"
"43 Commercial Wharf #2, Boston, MA 02110 - Condo For Sale","1495000","2110","SingleFamilyResidence","1366","1 / 1","1","43 Commercial Wharf #2","42.362171","-71.050186","1875","2","No","condominium"
"47 Hampstead Rd #2, Boston, MA 02130 - Condo For Sale","795000","2130","SingleFamilyResidence","1273","1","3","47 Hampstead Rd #2","42.303993","-71.116373","1900","0","0.03 acres","condominium"
"20 Gloucester St #1F, Boston, MA 02115 - Condo For Sale","1199000","2115","SingleFamilyResidence","842","1","1","20 Gloucester St #1F","42.350523","-71.084991","1920","0","0.02 acres","condominium"
"150 Seaport Blvd #16E, Boston, MA 02210 - Condo For Sale","9450000","2210","SingleFamilyResidence","2553","3 / 1","3","150 Seaport Blvd #16E","42.350754","-71.042766","2022","2","community-pool","condominium"
"1485 Hyde Park Ave #1485, Boston, MA 02136 - Condo For Sale","659000","2136","SingleFamilyResidence","2247","3 / 1","4","1485 Hyde Park Ave #1485","42.248127","-71.127458","2008","3","0.05 acres","condominium"
"3171 Washington St #304, Boston, MA 02130 - Condo For Sale","949000","2130","SingleFamilyResidence","1282","1 / 1","2","3171 Washington St #304","42.313483","-71.100822","2022","0","No","condominium"
"3171 Washington St #202, Boston, MA 02130 - Condo For Sale","699000","2130","SingleFamilyResidence","1010","1 / 1","2","3171 Washington St #202","42.313483","-71.100822","2022","0","No","condominium"
"80 Marlborough St #2, Boston, MA 02116 - Condo For Sale","1165000","2116","SingleFamilyResidence","777","1","1","80 Marlborough St #2","42.353444","-71.075581","1910","0","0.02 acres","condominium"
"500 Atlantic Ave #19L, Boston, MA 02210 - Condo For Sale","2400000","2210","SingleFamilyResidence","1557","2 / 1","2","500 Atlantic Ave #19L","42.353854","-71.052002","2006","1","0.04 acres","condominium"
"652 Massachusetts Ave, Boston, MA 02118 - Condo For Sale","1595000","2118","SingleFamilyResidence","1605","2 / 1","3","652 Massachusetts Ave","42.336333","-71.076414","1890","0","No","condominium"
"40 Traveler St #210, Boston, MA 02118 - Condo For Sale","969900","2118","SingleFamilyResidence","818","1 / 1","1","40 Traveler St #210","42.344318","-71.062452","2018","0","community-pool","condominium"
"30 Penniman Rd #508, Boston, MA 02134 - Condo For Sale","859000","2134","SingleFamilyResidence","910","1","1","30 Penniman Rd #508","42.355327","-71.136404","2023","1","No","condominium"
"61 Walk Hill St #2, Boston, MA 02130 - Home For Sale","565000","2130","SingleFamilyResidence","912","1","2","61 Walk Hill St #2","42.293854","-71.114516","1920","1","0.02 acres","home"
"17 Claremont Park #I, Boston, MA 02118 - Condo For Sale","3199999","2118","SingleFamilyResidence","2415","3 / 1","3","17 Claremont Park #I","42.342302","-71.081185","1899","0","No","condominium"
"20 Atwood Sq #5, Boston, MA 02130 - Condo For Sale","339000","2130","SingleFamilyResidence","497","1","1","20 Atwood Sq #5","42.30702","-71.116498","1910","0","No","condominium"
"140 Shawmut Ave #4C, Boston, MA 02118 - Home For Sale","2850000","2118","SingleFamilyResidence","2257","2 / 1","3","140 Shawmut Ave #4C","42.345964","-71.065781","2018","2","community-pool","home"
"437 D St #6C, Boston, MA 02210 - Condo For Sale","1095000","2210","SingleFamilyResidence","1244","1","1","437 D St #6C","42.345143","-71.042952","1920","1","No","condominium"
"12 Corwin St, Boston, MA 02122 - Single-Family Home For Sale","750000","2122","SingleFamilyResidence","1636","2","5","12 Corwin St","42.302181","-71.062386","1910","0","0.04 acres","single-family-home"
"32 Temple St #3, Boston, MA 02114 - Condo For Sale","1895000","2114","SingleFamilyResidence","1500","2","3","32 Temple St #3","42.360434","-71.063539","1860","0","No","condominium"
"472 E 4th St, Boston, MA 02127 - Condo For Sale","1190000","2127","SingleFamilyResidence","1638","3","3","472 E 4th St","42.334757","-71.046213","1890","0","No","condominium"
"14 Soley St #14, Boston, MA 02129 - Condo For Sale","975000","2129","SingleFamilyResidence","1060","2","2","14 Soley St #14","42.374315","-71.061732","1968","1","No","condominium"
"4 Charlesgate E #204, Boston, MA 02215 - Condo For Sale","1300000","2215","SingleFamilyResidence","1127","2","2","4 Charlesgate E #204","42.350086","-71.091317","1910","1","0.03 acres","condominium"
"126 Marlborough St, Boston, MA 02116 - Single-Family Home For Sale","12000000","2116","SingleFamilyResidence","4788","5 / 2","4","126 Marlborough St","42.35301","-71.077378","1868","2","0.05 acres","single-family-home"
"165 W Brookline St, Boston, MA 02118 - Single-Family Home For Sale","6500000","2118","SingleFamilyResidence","4169","3 / 2","4","165 W Brookline St","42.342671","-71.075751","1890","0","0.04 acres","single-family-home"
"1645 Commonwealth Ave #18, Boston, MA 02135 - Home For Sale","520000","2135","SingleFamilyResidence","851","1","3","1645 Commonwealth Ave #18","42.342695","-71.14455","1930","1","No","home"
"501 Beacon St #1, Boston, MA 02215 - Condo For Sale","479000","2215","SingleFamilyResidence","560","1","1","501 Beacon St #1","42.350516","-71.089959","1950","0","0.06 acres","condominium"
"12 Durham St #1, Boston, MA 02115 - Home For Sale","1950000","2115","SingleFamilyResidence","1500","2","2","12 Durham St #1","42.343997","-71.080801","1885","1","No","home"
"111 Perkins St #196, Boston, MA 02130 - Home For Sale","799000","2130","SingleFamilyResidence","1310","2","2","111 Perkins St #196","42.322493","-71.115654","1963","1","community-pool","home"
"130 Arlington St #1, Boston, MA 02116 - Condo For Sale","2299000","2116","SingleFamilyResidence","1793","2 / 1","3","130 Arlington St #1","42.349011","-71.069506","2023","0","No","condominium"
"242 Shawmut Ave #1B, Boston, MA 02118 - Condo For Sale","1395000","2118","SingleFamilyResidence","1396","2 / 1","2","242 Shawmut Ave #1B","42.343552","-71.06786","1899","0","No","condominium"
"386 Riverway #6, Boston, MA 02115 - Condo For Sale","675000","2115","SingleFamilyResidence","1125","1","2","386 Riverway #6","42.332426","-71.112033","1920","0","No","condominium"
"8 Champlain Cir, Boston, MA 02124 - Single-Family Home For Sale","449900","2124","SingleFamilyResidence","936","1","2","8 Champlain Cir","42.296051","-71.074168","1984","0","0.04 acres","single-family-home"
"4 Otis Pl, Boston, MA 02108 - Single-Family Home For Sale","8495000","2108","SingleFamilyResidence","4500","4 / 2","4","4 Otis Pl","42.357","-71.071988","1890","0","0.02 acres","single-family-home"
"6 W Cedar St, Boston, MA 02108 - Single-Family Home For Sale","8995000","2108","SingleFamilyResidence","4602","4 / 2","5","6 W Cedar St","42.3575","-71.069493","1899","1","0.03 acres","multi-story"
"380 Commonwealth Ave #1, Boston, MA 02215 - Condo For Sale","4599000","2215","SingleFamilyResidence","2503","3 / 1","3","380 Commonwealth Ave #1","42.348639","-71.089402","2016","2","No","condominium"
"134 Beacon St #101, Boston, MA 02116 - Condo For Sale","5650000","2116","SingleFamilyResidence","2815","3","3","134 Beacon St #101","42.355037","-71.075123","1861","2","No","condominium"
"29 Brimmer St #1, Boston, MA 02108 - Condo For Sale","2995000","2108","SingleFamilyResidence","2172","3","2","29 Brimmer St #1","42.357856","-71.072199","1880","0","0.05 acres","condominium"
"2 Battery Wharf #2307, Boston, MA 02109 - Home For Sale","1185000","2109","SingleFamilyResidence","960","1 / 1","1","2 Battery Wharf #2307","42.366869","-71.051495","2008","1","0.02 acres","home"
"69 & 71 Readville Street, Boston, MA 02136 - Land For Sale","750000","2136","SingleFamilyResidence","0","0","0","69 & 71 Readville Street","42.243905","-71.133966","not available","0","0.43 acres","land"
"192 Walnut Ave #3, Boston, MA 02119 - Condo For Sale","699999","2119","SingleFamilyResidence","1354","2","3","192 Walnut Ave #3","42.319617","-71.089077","2018","1","No","condominium"
"92-94 George #101, Boston, MA 02119 - Condo For Sale","665000","2119","SingleFamilyResidence","1223","2","2","92-94 George #101","42.325782","-71.072263","2022","1","0.04 acres","condominium"
"300 Summer St #22, Boston, MA 02210 - Home For Sale","415000","2210","SingleFamilyResidence","1354","1","1","300 Summer St #22","42.350077","-71.049342","1898","0","No","home"
"100 Shawmut Ave #208, Boston, MA 02118 - Condo For Sale","1299900","2118","SingleFamilyResidence","1182","2","2","100 Shawmut Ave #208","42.346582","-71.065599","2021","1","No","condominium"
"5 Appleton St #1A, Boston, MA 02116 - Home For Sale","1165000","2116","SingleFamilyResidence","1315","1 / 1","2","5 Appleton St #1A","42.346684","-71.069787","1900","0","No","home"
"70 Leo M Birmingham Pkwy #411, Boston, MA 02135 - Condo For Sale","749000","2135","SingleFamilyResidence","725","1","1","70 Leo M Birmingham Pkwy #411","42.359145","-71.146848","2023","1","No","condominium"
"46 E Springfield St #1, Boston, MA 02118 - Condo For Sale","699000","2118","SingleFamilyResidence","588","1","1","46 E Springfield St #1","42.336837","-71.075939","1910","1","No","condominium"
"7 Guilford St, Boston, MA 02134 - Single-Family Home For Sale","825000","2134","SingleFamilyResidence","1478","2","4","7 Guilford St","42.352831","-71.141486","1930","1","0.06 acres","single-family-home"
"9 Everett St #6, Boston, MA 02134 - Condo For Sale","535100","2134","SingleFamilyResidence","612","1","1","9 Everett St #6","42.354214","-71.138701","2023","0","No","condominium"
"9 Everett St #2, Boston, MA 02134 - Condo For Sale","649000","2134","SingleFamilyResidence","716","1","1","9 Everett St #2","42.354214","-71.138701","2023","0","No","condominium"
"1 Huntington Ave #502, Boston, MA 02116 - Condo For Sale","2475000","2116","SingleFamilyResidence","1344","2","2","1 Huntington Ave #502","42.348698","-71.078213","1999","1","0.03 acres","condominium"
"100 Lincoln St #503, Boston, MA 02135 - Condo For Sale","899000","2135","SingleFamilyResidence","840","2","2","100 Lincoln St #503","42.358409","-71.142345","2023","1","No","condominium"
"100 Lincoln St #304, Boston, MA 02135 - Condo For Sale","949000","2135","SingleFamilyResidence","901","2","2","100 Lincoln St #304","42.358409","-71.142345","2023","1","No","condominium"
"100 Lincoln St #406, Boston, MA 02135 - Condo For Sale","929000","2135","SingleFamilyResidence","903","2","2","100 Lincoln St #406","42.358409","-71.142345","2023","1","No","condominium"
"100 Lincoln St #202, Boston, MA 02135 - Condo For Sale","799000","2135","SingleFamilyResidence","901","2","2","100 Lincoln St #202","42.358409","-71.142345","2023","0","No","condominium"
"100 Lincoln St #208, Boston, MA 02135 - Condo For Sale","850000","2135","SingleFamilyResidence","915","2","2","100 Lincoln St #208","42.358409","-71.142345","2023","1","No","condominium"
"100 Lincoln St #301, Boston, MA 02135 - Condo For Sale","888000","2135","SingleFamilyResidence","937","2","2","100 Lincoln St #301","42.358409","-71.142345","2023","1","No","condominium"
"150 Staniford St #523, Boston, MA 02114 - Condo For Sale","589000","2114","SingleFamilyResidence","915","1","2","150 Staniford St #523","42.364127","-71.063662","1997","1","community-pool","condominium"
"104 Train St #3, Boston, MA 02122 - Condo For Sale","579900","2122","SingleFamilyResidence","1196","1","3","104 Train St #3","42.292329","-71.05374","1910","0","No","condominium"
"9 Greenmount St #2, Boston, MA 02125 - Condo For Sale","659000","2125","SingleFamilyResidence","896","2","2","9 Greenmount St #2","42.31024","-71.058515","2023","1","No","condominium"
"108 Woodley Ave, West Roxbury, MA 02132 - Single-Family Home For Sale","850000","2132","SingleFamilyResidence","2147","2","3","108 Woodley Ave","42.262856","-71.150168","1960","0","0.14 acres","single-family-home"
"7 Parker St #2, Boston, MA 02129 - Condo For Sale","749900","2129","SingleFamilyResidence","960","2","2","7 Parker St #2","42.38392","-71.078812","2022","0","community-pool","condominium"
"2 Lagrange St #11, West Roxbury, MA 02132 - Condo For Sale","340000","2132","SingleFamilyResidence","570","1","2","2 Lagrange St #11","42.272968","-71.144086","1955","0","No","condominium"
"411 E 3rd St #1, Boston, MA 02127 - Condo For Sale","1275000","2127","SingleFamilyResidence","2349","3","2","411 E 3rd St #1","42.336215","-71.043694","2023","0","No","condominium"
"55 Commercial Wharf #8, Boston, MA 02110 - Condo For Sale","3890000","2110","SingleFamilyResidence","2275","2 / 1","2","55 Commercial Wharf #8","42.362009","-71.049631","1832","2","0.05 acres","condominium"
"20 Monterey Ave, Boston, MA 02126 - Single-Family Home For Sale","575000","2126","SingleFamilyResidence","2316","2","4","20 Monterey Ave","42.275749","-71.098362","1960","0","0.17 acres","single-family-home"
"64 Baxter St #1, Boston, MA 02127 - Condo For Sale","949000","2127","SingleFamilyResidence","1404","2 / 1","2","64 Baxter St #1","42.335658","-71.053772","2024","1","No","condominium"
"177 H St #1, Boston, MA 02127 - Home For Sale","499000","2127","SingleFamilyResidence","790","1 / 1","1","177 H St #1","42.331795","-71.041594","1890","0","0.02 acres","home"
"150 Seaport Blvd #15F, Boston, MA 02210 - Condo For Sale","7600000","2210","SingleFamilyResidence","2610","3 / 1","3","150 Seaport Blvd #15F","42.350754","-71.042766","2022","2","community-pool","condominium"
"201 Washington St #1, Boston, MA 02135 - Condo For Sale","1444900","2135","SingleFamilyResidence","1378","2 / 1","2","201 Washington St #1","42.346919","-71.14757","2023","0","community-pool","condominium"
"1313 Washington St #413, Boston, MA 02118 - Condo For Sale","850000","2118","SingleFamilyResidence","945","1","1","1313 Washington St #413","42.341961","-71.068408","2002","1","0.02 acres","condominium"
"67 Montgomery St #1, Boston, MA 02116 - Condo For Sale","1650000","2116","SingleFamilyResidence","1595","2 / 1","3","67 Montgomery St #1","42.343597","-71.074372","1870","0","0.03 acres","condominium"
"5 Meyer St #5, Boston, MA 02131 - Condo For Sale","1169000","2131","SingleFamilyResidence","2300","3 / 1","4","5 Meyer St #5","42.289033","-71.115173","2023","2","0.53 acres","condominium"
"100 Shawmut Ave #804, Boston, MA 02118 - Condo For Sale","1841900","2118","SingleFamilyResidence","1396","2","2","100 Shawmut Ave #804","42.346582","-71.065599","2021","2","No","condominium"
"111 Perkins St #186, Boston, MA 02130 - Condo For Sale","750000","2130","SingleFamilyResidence","1310","2","2","111 Perkins St #186","42.322493","-71.115654","1963","1","community-pool","condominium"
"25 W 9th St #25, South Boston, MA 02127 - Condo For Sale","1675000","2127","SingleFamilyResidence","2498","3 / 1","3","25 W 9th St #25","42.376351","-71.052692","1987","0","No","condominium"
"17 Cazenove St #306, Boston, MA 02116 - Condo For Sale","549000","2116","SingleFamilyResidence","417","1","1","17 Cazenove St #306","42.347209","-71.072983","1890","0","0.01 acres","condominium"
"197 8th St #221, Boston, MA 02129 - Home For Sale","1650000","2129","SingleFamilyResidence","2152","3","2","197 8th St #221","42.333438","-71.05183","1935","2","0.05 acres","home"
"274 Clarendon St #10, Boston, MA 02116 - Condo For Sale","559000","2116","SingleFamilyResidence","638","1","1","274 Clarendon St #10","42.353621","-71.076821","1910","0","0.01 acres","condominium"
"74 Tyler St #B, Boston, MA 02111 - Condo For Sale","399900","2111","SingleFamilyResidence","511","1","1","74 Tyler St #B","42.349206","-71.061235","1890","0","0.01 acres","condominium"
"375 Shawmut Ave, Boston, MA 02118 - Single-Family Home For Sale","1599000","2118","SingleFamilyResidence","1876","1 / 1","4","375 Shawmut Ave","42.341195","-71.072552","1890","0","0.02 acres","multi-story"
"1 Franklin St #3110, Boston, MA 02110 - Home For Sale","2360000","2110","SingleFamilyResidence","1281","2","2","1 Franklin St #3110","42.356317","-71.059557","2016","1","community-pool","home"
"Open House: 12:00 PM - 1:30 PM at 1 Franklin St #3110","2360000","","v","","","","","","","","","",""
"45 Province St #2702, Boston, MA 02108 - Home For Sale","2250000","2108","SingleFamilyResidence","1636","2","2","45 Province St #2702","42.357328","-71.059945","2009","1","0.04 acres","home"
"90 Oakmere St, Boston, MA 02132 - Single-Family Home For Sale","569900","2132","SingleFamilyResidence","1330","2","2","90 Oakmere St","42.269733","-71.169438","1928","1","0.11 acres","single-family-home"
"240 Devonshire St #5903, Boston, MA 02110 - Condo For Sale","3050000","2110","SingleFamilyResidence","1379","2","2","240 Devonshire St #5903","42.35458","-71.057112","2023","1","community-pool","condominium"
"180 Telford St #U409, Brighton, MA 02135 - Condo For Sale","625000","2135","SingleFamilyResidence","736","1","1","180 Telford St #U409","42.362544","-71.139341","2018","1","No","condominium"
"1 Franklin St #4602, Boston, MA 02110 - Condo For Sale","6450000","2110","SingleFamilyResidence","3172","3 / 1","3","1 Franklin St #4602","42.355715","-71.059183","2016","2","No","condominium"
"396 Beacon St #D, Boston, MA 02116 - Land For Sale","275000","2116","SingleFamilyResidence","0","0","0","396 Beacon St #D","42.352249","-71.085316","not available","0","No","land"
"380 Harrison Ave #1022, Boston, MA 02118 - Condo For Sale","1699000","2118","SingleFamilyResidence","1350","2","2","380 Harrison Ave #1022","42.343847","-71.063695","2021","1","community-pool","condominium"
"380 Harrison Ave. #UNIT 14C, Boston, MA 02118 - Condo For Sale","1999000","2118","SingleFamilyResidence","1356","2 / 1","2","380 Harrison Ave. #UNIT 14C","42.343847","-71.063695","2021","1","community-pool","condominium"
"104 Keith St, Boston, MA 02132 - Single-Family Home For Sale","849900","2132","SingleFamilyResidence","1550","1 / 2","3","104 Keith St","42.285732","-71.170172","1932","1","0.11 acres","single-family-home"
"156 Bellevue St, Boston, MA 02132 - Single-Family Home For Sale","1499900","2132","SingleFamilyResidence","3612","3","5","156 Bellevue St","42.279978","-71.151837","1888","2","0.42 acres","single-family-home"
"39 Goethe St, Boston, MA 02132 - Single-Family Home For Sale","737900","2132","SingleFamilyResidence","1484","2","3","39 Goethe St","42.256222","-71.158243","1960","1","0.11 acres","single-family-home"
"566 Columbus Ave #612, Boston, MA 02118 - Condo For Sale","985000","2118","SingleFamilyResidence","814","1","1","566 Columbus Ave #612","42.340805","-71.081022","2023","0","0.01 acres","condominium"
"90 Waltham St #1, Boston, MA 02118 - Condo For Sale","2775000","2118","SingleFamilyResidence","2308","3 / 1","3","90 Waltham St #1","42.343349","-71.071075","2016","1","No","condominium"
"36 Monument Ave, Boston, MA 02129 - Single-Family Home For Sale","2650000","2129","SingleFamilyResidence","3026","3 / 1","5","36 Monument Ave","42.374707","-71.061998","1860","2","0.04 acres","single-family-home"
"5 Appleton St #1D, Boston, MA 02116 - Condo For Sale","849000","2116","SingleFamilyResidence","815","1","1","5 Appleton St #1D","42.346684","-71.069787","1900","0","No","condominium"
"1 Dalton St #3301, Boston, MA 02115 - Home For Sale","6995000","2115","SingleFamilyResidence","2663","3 / 1","3","1 Dalton St #3301","42.345665","-71.084036","2019","2","community-pool","home"
"62 Baxter St #4, Boston, MA 02127 - Condo For Sale","1399000","2127","SingleFamilyResidence","1826","2 / 1","3","62 Baxter St #4","42.335729","-71.053778","2024","1","No","condominium"
"793 E 4th St, Boston, MA 02127 - Single-Family Home For Sale","3050000","2127","SingleFamilyResidence","2742","4 / 1","4","793 E 4th St","42.334668","-71.031919","1910","0","0.03 acres","single-family-home"
"40 Traveler St #810, Boston, MA 02118 - Condo For Sale","3299000","2118","SingleFamilyResidence","1823","3","3","40 Traveler St #810","42.344318","-71.062452","2018","1","No","condominium"
"53A River St #A, Boston, MA 02126 - Condo For Sale","629000","2126","SingleFamilyResidence","1536","2 / 1","3","53A River St #A","42.272003","-71.072588","2017","1","No","condominium"
"42 8th St #4401, Boston, MA 02129 - Condo For Sale","799000","2129","SingleFamilyResidence","1153","2","2","42 8th St #4401","42.375045","-71.052655","2003","1","community-pool","condominium"
"5 Wellington St #3, Boston, MA 02118 - Condo For Sale","1950000","2118","SingleFamilyResidence","1560","2 / 1","2","5 Wellington St #3","42.341558","-71.081471","1910","1","0.04 acres","condominium"
"195 Marlborough St #2, Boston, MA 02116 - Condo For Sale","2250000","2116","SingleFamilyResidence","1404","2","2","195 Marlborough St #2","42.352563","-71.080628","1880","0","0.03 acres","condominium"
"425 Lagrange St #302, Boston, MA 02132 - Condo For Sale","795500","2132","SingleFamilyResidence","1030","2","2","425 Lagrange St #302","42.281012","-71.158949","2023","2","0.62 acres","condominium"
"180 Telford St #311, Brighton, MA 02135 - Condo For Sale","1199000","2135","SingleFamilyResidence","1105","2","2","180 Telford St #311","42.363603","-71.137889","2017","2","No","condominium"
"142 P St #2, Boston, MA 02127 - Condo For Sale","2149000","2127","SingleFamilyResidence","2358","3 / 1","4","142 P St #2","42.333583","-71.026851","2024","2","No","condominium"
"142 P St #5, Boston, MA 02127 - Condo For Sale","1999000","2127","SingleFamilyResidence","2463","3 / 1","4","142 P St #5","42.333583","-71.026851","2024","2","No","condominium"
"92-94 George #103, Boston, MA 02119 - Condo For Sale","450000","2119","SingleFamilyResidence","628","1","1","92-94 George #103","42.325782","-71.072263","2022","1","0.04 acres","condominium"
"735 Vfw Pkwy #735, Boston, MA 02132 - Condo For Sale","565000","2132","SingleFamilyResidence","912","1","2","735 Vfw Pkwy #735","42.29298","-71.164139","1940","1","No","condominium"
"140 Shawmut Ave #6A, Boston, MA 02118 - Condo For Sale","3399000","2118","SingleFamilyResidence","2597","3 / 1","3","140 Shawmut Ave #6A","42.345964","-71.065781","2017","2","No","condominium"
"65 Chester St #9, Boston, MA 02134 - Home For Sale","475000","2134","SingleFamilyResidence","650","1","2","65 Chester St #9","42.352831","-71.128172","1920","0","0.01 acres","home"
"40 Traveler St #201, Boston, MA 02118 - Condo For Sale","1250000","2118","SingleFamilyResidence","1347","2 / 1","2","40 Traveler St #201","42.344318","-71.062452","2018","1","No","condominium"
"55 Walk Hill Street #UNIT 2, Boston, MA 02130 - Condo For Sale","680000","2130","SingleFamilyResidence","1250","2","3","55 Walk Hill Street #UNIT 2","42.293969","-71.114751","1910","0","No","condominium"
"1 Avery St #10G, Boston, MA 02111 - Home For Sale","1299000","2111","SingleFamilyResidence","1402","2 / 1","2","1 Avery St #10G","42.353613","-71.062871","2000","1","0.03 acres","home"
"131 Park Dr #36, Boston, MA 02215 - Condo For Sale","630000","2215","SingleFamilyResidence","575","1","1","131 Park Dr #36","42.341755","-71.097925","1910","0","0.01 acres","condominium"
"193 Saint Botolph St #5, Boston, MA 02115 - Condo For Sale","1425000","2115","SingleFamilyResidence","1100","1","2","193 Saint Botolph St #5","42.34286","-71.083573","1890","1","0.03 acres","condominium"
"106 13th St #306, Boston, MA 02129 - Condo For Sale","662000","2129","SingleFamilyResidence","1051","2","2","106 13th St #306","42.377678","-71.050473","1920","1","community-pool","condominium"
"480 W Broadway #301, Boston, MA 02127 - Condo For Sale","825000","2127","SingleFamilyResidence","1005","1 / 1","2","480 W Broadway #301","42.33573","-71.045646","2023","1","No","condominium"
"184 Beacon St, Boston, MA 02116 - Condo For Sale","7250000","2116","SingleFamilyResidence","3577","2 / 2","3","184 Beacon St","42.354405","-71.077285","1899","2","No","condominium"
"211 Condor St #8, Boston, MA 02128 - Condo For Sale","849900","2128","SingleFamilyResidence","1252","2","2","211 Condor St #8","42.38249","-71.032807","2021","1","No","condominium"
"356 Princeton St #1, Boston, MA 02128 - Condo For Sale","474900","2128","SingleFamilyResidence","791","1","2","356 Princeton St #1","42.380962","-71.027222","1900","0","No","condominium"
"1 Franklin St #1003, Boston, MA 02110 - Condo For Sale","1995000","2110","SingleFamilyResidence","1406","2","2","1 Franklin St #1003","42.355715","-71.059183","2016","1","community-pool","condominium"
"45 Hemenway St #B, Boston, MA 02115 - Condo For Sale","769000","2115","SingleFamilyResidence","845","1","2","45 Hemenway St #B","42.345361","-71.089773","1870","0","0.02 acres","condominium"
"2400 Beacon St #211, Chestnut Hill, MA 02467 - Condo For Sale","995000","2467","SingleFamilyResidence","1206","1 / 1","2","2400 Beacon St #211","42.333653","-71.153113","2006","1","No","condominium"
"601-611 E Broadway #301, Boston, MA 02127 - Condo For Sale","899000","2127","SingleFamilyResidence","1054","2","2","601-611 E Broadway #301","42.335348","-71.040186","1910","0","0.02 acres","condominium"
"9 Grant Pl #5, Boston, MA 02124 - Condo For Sale","699000","2124","SingleFamilyResidence","1481","2 / 1","2","9 Grant Pl #5","42.274853","-71.070585","2006","0","0.03 acres","condominium"
"10 Saint Rose St #1, Boston, MA 02130 - Condo For Sale","679000","2130","SingleFamilyResidence","1263","1","3","10 Saint Rose St #1","42.304403","-71.115158","1905","1","0.03 acres","condominium"
"127 Washington St #3C, Dorchester, MA 02121 - Condo For Sale","479999","2121","SingleFamilyResidence","1215","2","3","127 Washington St #3C","42.304836","-71.080208","1900","1","No","condominium"
"84 O St #3, Boston, MA 02127 - Condo For Sale","929000","2127","SingleFamilyResidence","1231","1 / 1","3","84 O St #3","42.33532","-71.029046","1890","0","0.03 acres","condominium"
"20 Salman St, West Roxbury, MA 02132 - Single-Family Home For Sale","1149900","2132","SingleFamilyResidence","3513","4 / 1","6","20 Salman St","42.265925","-71.165437","1984","0","0.21 acres","multi-story"
"27 Parker St #2A, Boston, MA 02129 - Condo For Sale","772000","2129","SingleFamilyResidence","1029","1 / 1","2","27 Parker St #2A","42.38305","-71.07942","1890","0","No","condominium"
"67 Williams Ave, Boston, MA 02136 - Single-Family Home For Sale","779000","2136","SingleFamilyResidence","1652","1 / 1","3","67 Williams Ave","42.248808","-71.118078","1960","1","0.09 acres","single-family-home"
"1910 Dorchester Ave #506, Boston, MA 02124 - Condo For Sale","539000","2124","SingleFamilyResidence","1002","1","2","1910 Dorchester Ave #506","42.284284","-71.064496","2006","1","community-pool","condominium"
"210 W Springfield St, Boston, MA 02118 - Condo For Sale","3385000","2118","SingleFamilyResidence","2250","4 / 1","4","210 W Springfield St","42.340399","-71.080546","1899","0","No","condominium"
"180 Telford St #502, Boston, MA 02135 - Condo For Sale","599000","2135","SingleFamilyResidence","662","1","1","180 Telford St #502","42.363815","-71.137644","2018","1","No","condominium"
"3305-3309 Washington St #401, Boston, MA 02130 - Condo For Sale","920000","2130","SingleFamilyResidence","1197","2","2","3305-3309 Washington St #401","42.310583","-71.103806","2022","1","No","condominium"
"5A Mount Vernon St #3, Boston, MA 02125 - Condo For Sale","899000","2125","SingleFamilyResidence","1578","2 / 1","2","5A Mount Vernon St #3","42.322529","-71.059923","2006","0","No","condominium"
"2 Spruce St, Boston, MA 02108 - Single-Family Home For Sale","6495000","2108","SingleFamilyResidence","6205","5 / 2","5","2 Spruce St","42.357277","-71.06796","1914","0","0.03 acres","multi-story"
"5 Walker St, Boston, MA 02129 - Single-Family Home For Sale","950000","2129","SingleFamilyResidence","1463","1","4","5 Walker St","42.378368","-71.067522","1850","0","0.03 acres","single-family-home"
"32 Perthshire Rd #2, Boston, MA 02135 - Home For Sale","1249000","2135","SingleFamilyResidence","2118","3","5","32 Perthshire Rd #2","42.353454","-71.166783","2023","3","No","home"
"32 Perthshire Rd #1, Boston, MA 02135 - Condo For Sale","1149000","2135","SingleFamilyResidence","2105","3","6","32 Perthshire Rd #1","42.353454","-71.166783","2023","0","No","condominium"
"8 Whittier Pl #23B, Boston, MA 02114 - Condo For Sale","579000","2114","SingleFamilyResidence","935","1","1","8 Whittier Pl #23B","42.365484","-71.06728","1964","0","0.02 acres","condominium"
"20 Beacon St, Boston, MA 02108 - Condo For Sale","7799000","2108","SingleFamilyResidence","3781","3 / 2","3","20 Beacon St","42.357809","-71.062736","1899","1","0.08 acres","condominium"
"425 Bunker Hill St #2, Charlestown, MA 02129 - Condo For Sale","939000","2129","SingleFamilyResidence","1359","2","4","425 Bunker Hill St #2","42.383134","-71.070679","1885","0","No","condominium"
"17 Wellesley Park, Boston, MA 02124 - Single-Family Home For Sale","959000","2124","SingleFamilyResidence","2704","2","5","17 Wellesley Park","42.296577","-71.066189","1897","99","0.08 acres","single-family-home"
"445 Beacon St #2, Boston, MA 02115 - Home For Sale","2125000","2115","SingleFamilyResidence","1198","2","2","445 Beacon St #2","42.351173","-71.087498","1880","1","No","home"
"375 Border St #375, Boston, MA 02128 - Home For Sale","1099000","2128","SingleFamilyResidence","1450","2 / 1","3","375 Border St #375","42.379993","-71.040046","2015","2","No","home"
"1106 Saratoga St, East Boston, MA 02128 - Single-Family Home For Sale","1799900","2128","SingleFamilyResidence","1932","2","3","1106 Saratoga St","42.385079","-71.002036","1915","0","0.09 acres","single-family-home"
"1106 Saratoga St, Boston, MA 02128 - Land For Sale","1799900","2128","SingleFamilyResidence","0","0","0","1106 Saratoga St","42.385079","-71.002036","not available","0","0.19 acres","land"
"891 Vfw Pkwy, Boston, MA 02132 - Home For Sale","799000","2132","SingleFamilyResidence","1795","1 / 1","4","891 Vfw Pkwy","42.28913","-71.170914","1940","2","0.21 acres","home"
"160 Mount Vernon St, Boston, MA 02108 - Single-Family Home For Sale","9500000","2108","SingleFamilyResidence","4151","6 / 1","5","160 Mount Vernon St","42.357288","-71.071734","1890","1","0.03 acres","single-family-home"
"420 W Broadway #604, Boston, MA 02127 - Condo For Sale","1049000","2127","SingleFamilyResidence","876","1","2","420 W Broadway #604","42.336741","-71.047227","2019","2","No","condominium"
"4 Mercer St #4, Boston, MA 02127 - Condo For Sale","790000","2127","SingleFamilyResidence","1416","2","2","4 Mercer St #4","42.333497","-71.048809","1988","1","No","condominium"
"1 Franklin St #5203, Boston, MA 02110 - Condo For Sale","5300000","2110","SingleFamilyResidence","2773","4 / 1","3","1 Franklin St #5203","42.355715","-71.059183","2016","2","community-pool","condominium"
"1 Charles St S #11A, Boston, MA 02116 - Condo For Sale","3795000","2116","SingleFamilyResidence","2479","4 / 1","3","1 Charles St S #11A","42.351175","-71.067323","2004","2","0.06 acres","condominium"
"20 Monument Sq, Boston, MA 02129 - Single-Family Home For Sale","3950000","2129","SingleFamilyResidence","5500","5 / 2","5","20 Monument Sq","42.376985","-71.060199","1862","0","0.06 acres","single-family-home"
"20 Maryland St #1, Boston, MA 02125 - Condo For Sale","699900","2125","SingleFamilyResidence","1051","2","2","20 Maryland St #1","42.311255","-71.055325","1965","0","No","condominium"
"300 Boylston St #709, Boston, MA 02116 - Condo For Sale","4250000","2116","SingleFamilyResidence","2603","2 / 1","2","300 Boylston St #709","42.351864","-71.069825","1988","2","No","condominium"
"35 Leyden St #4, Boston, MA 02128 - Home For Sale","699995","2128","SingleFamilyResidence","1193","2","2","35 Leyden St #4","42.3902","-71.011111","2022","1","community-pool","home"
"100 Shawmut Ave #1108, Boston, MA 02118 - Condo For Sale","779900","2118","SingleFamilyResidence","558","1","0","100 Shawmut Ave #1108","42.346582","-71.065599","2021","0","No","condominium"
"726 E 8th St #2, South Boston, MA 02127 - Condo For Sale","2150000","2127","SingleFamilyResidence","2046","3 / 1","3","726 E 8th St #2","42.331654","-71.0324","2023","1","No","condominium"
"10 Jamaicaway #2, Boston, MA 02130 - Home For Sale","389900","2130","SingleFamilyResidence","650","1","1","10 Jamaicaway #2","42.3313","-71.112404","1920","0","0.01 acres","home"
"322-324 W 4th #PH6, Boston, MA 02127 - Condo For Sale","1375000","2127","SingleFamilyResidence","1533","2","2","322-324 W 4th #PH6","42.337972","-71.051076","2008","0","No","condominium"
"1 Cefalo Rd, Boston, MA 02132 - Single-Family Home For Sale","1799000","2132","SingleFamilyResidence","3649","3 / 1","4","1 Cefalo Rd","42.288219","-71.14585","2021","2","0.22 acres","single-family-home"
"1 Leonard Pl #TWO, Boston, MA 02127 - Condo For Sale","1049000","2127","SingleFamilyResidence","1267","2","2","1 Leonard Pl #TWO","42.334826","-71.031647","2018","1","No","condominium"
"Open House: 5:00 PM - 6:30 PM at 1 Leonard Pl #TWO","1049000","","v","","","","","","","","","",""
"4 Ransom Rd #4, Boston, MA 02135 - Condo For Sale","435000","2135","SingleFamilyResidence","400","1","1","4 Ransom Rd #4","42.34351","-71.144456","1930","1","No","condominium"
"81 E Brookline St #3, Boston, MA 02118 - Home For Sale","629900","2118","SingleFamilyResidence","643","1","2","81 E Brookline St #3","42.337507","-71.07024","1910","0","0.01 acres","home"
"12 Stoneholm St #320, Boston, MA 02115 - Home For Sale","699000","2115","SingleFamilyResidence","723","1","2","12 Stoneholm St #320","42.345821","-71.088631","2006","1","0.02 acres","home"
"10 Bradbury St #10, Boston, MA 02134 - Condo For Sale","1099888","2134","SingleFamilyResidence","2025","2 / 1","4","10 Bradbury St #10","42.358716","-71.132621","2015","1","No","condominium"
"2 Avery St #21E, Boston, MA 02111 - Condo For Sale","5800000","2111","SingleFamilyResidence","3246","3 / 1","4","2 Avery St #21E","42.35287","-71.062998","2001","2","community-pool","condominium"
"48 Coffey St #1C, Boston, MA 02122 - Condo For Sale","465000","2122","SingleFamilyResidence","913","1","2","48 Coffey St #1C","42.289272","-71.048985","1968","2","0.02 acres","condominium"
"13 Russell St #1, Boston, MA 02129 - Condo For Sale","799000","2129","SingleFamilyResidence","858","1 / 1","2","13 Russell St #1","42.379334","-71.064669","1870","0","No","condominium"
"175 Poplar St #4, Boston, MA 02131 - Condo For Sale","749900","2131","SingleFamilyResidence","1385","2","2","175 Poplar St #4","42.282251","-71.128257","1920","2","No","condominium"
"14B Porter St #2, Boston, MA 02130 - Condo For Sale","789000","2130","SingleFamilyResidence","1548","2","3","14B Porter St #2","42.31567","-71.10319","2023","0","0.05 acres","condominium"
"47 Harvest St #2, Boston, MA 02125 - Condo For Sale","665000","2125","SingleFamilyResidence","930","2 / 1","2","47 Harvest St #2","42.323337","-71.058856","1905","0","No","condominium"
"22 Worcester Sq #1, Boston, MA 02118 - Condo For Sale","2850000","2118","SingleFamilyResidence","3016","2 / 1","3","22 Worcester Sq #1","42.336742","-71.074263","1900","2","0.06 acres","condominium"
"342 W 3rd St #1, Boston, MA 02127 - Condo For Sale","975000","2127","SingleFamilyResidence","1110","1 / 1","2","342 W 3rd St #1","42.336504","-71.044913","1880","0","No","condominium"
"500 Atlantic Ave #16N, Boston, MA 02210 - Home For Sale","3269000","2210","SingleFamilyResidence","2519","4 / 1","3","500 Atlantic Ave #16N","42.35411","-71.05228","2006","1","community-pool","home"
"1330 Commonwealth Ave #16, Boston, MA 02134 - Home For Sale","445000","2134","SingleFamilyResidence","565","1","2","1330 Commonwealth Ave #16","42.348025","-71.135062","1920","0","0.01 acres","home"
"2 Avery St #33B, Boston, MA 02111 - Condo For Sale","1550000","2111","SingleFamilyResidence","1032","2","2","2 Avery St #33B","42.35287","-71.062998","2000","1","No","condominium"
"40 Isabella St #3E, Boston, MA 02116 - Condo For Sale","1749000","2116","SingleFamilyResidence","1450","2","3","40 Isabella St #3E","42.348399","-71.071053","1904","2","No","condominium"
"566 Columbus Ave #603, Boston, MA 02118 - Condo For Sale","2250000","2118","SingleFamilyResidence","1546","2 / 1","2","566 Columbus Ave #603","42.340805","-71.081022","2023","1","No","condominium"
"566 Columbus Ave #102, Boston, MA 02118 - Condo For Sale","1675000","2118","SingleFamilyResidence","1612","2 / 1","2","566 Columbus Ave #102","42.340805","-71.081022","2023","1","No","condominium"
"566 Columbus Ave #309, Boston, MA 02118 - Condo For Sale","1475000","2118","SingleFamilyResidence","1130","2","2","566 Columbus Ave #309","42.340805","-71.081022","2023","0","No","condominium"
"191 Condor St #2, Boston, MA 02128 - Condo For Sale","725000","2128","SingleFamilyResidence","1286","2","2","191 Condor St #2","42.382589","-71.033452","2022","2","No","condominium"
"191 Condor St #6, Boston, MA 02128 - Condo For Sale","669000","2128","SingleFamilyResidence","965","2","2","191 Condor St #6","42.382589","-71.033452","2022","1","No","condominium"
"19 W Tremlett St #1, Dorchester Center, MA 02124 - Condo For Sale","499999","2124","SingleFamilyResidence","852","2","2","19 W Tremlett St #1","42.294503","-71.073199","2023","0","No","condominium"
"70 Leo M Birmingham Pkwy #610, Boston, MA 02135 - Condo For Sale","1550000","2135","SingleFamilyResidence","1296","2","2","70 Leo M Birmingham Pkwy #610","42.359145","-71.146848","2023","2","No","condominium"
"584 E 4th St #1, Boston, MA 02127 - Condo For Sale","974999","2127","SingleFamilyResidence","1075","2 / 1","2","584 E 4th St #1","42.334782","-71.041308","1875","0","0.03 acres","condominium"
"126 Prince St #5, Boston, MA 02113 - Condo For Sale","668500","2113","SingleFamilyResidence","610","1","2","126 Prince St #5","42.366053","-71.057194","1920","0","No","condominium"
"46 Appleton St, Boston, MA 02116 - Single-Family Home For Sale","4395000","2116","SingleFamilyResidence","3751","3 / 1","5","46 Appleton St","42.345706","-71.071992","1890","1","No","multi-story"
"35 Tuckerman St #A, Boston, MA 02127 - Condo For Sale","1215000","2127","SingleFamilyResidence","2130","2 / 1","3","35 Tuckerman St #A","42.331578","-71.054926","2009","2","0.06 acres","condominium"
"68 Beacon St #4, Somerville, MA 02143 - Condo For Sale","1295000","2143","SingleFamilyResidence","1533","2 / 1","2","68 Beacon St #4","42.358139","-71.06179","2013","1","No","condominium"
"409 Commonwealth Ave #K, Boston, MA 02215 - Condo For Sale","4995000","2215","SingleFamilyResidence","3003","2 / 1","3","409 Commonwealth Ave #K","42.349465","-71.09098","1899","3","No","condominium"
"20 Ufford St, Boston, MA 02124 - Land For Sale","784000","2124","SingleFamilyResidence","2500","2","4","20 Ufford St","42.284215","-71.07994","2023","0","No","land"
"32 Traveler St #506, Boston, MA 02118 - Condo For Sale","1150000","2118","SingleFamilyResidence","873","1","1","32 Traveler St #506","42.344465","-71.063402","2015","1","No","condominium"
"50 Draper St #2, Boston, MA 02122 - Condo For Sale","679000","2122","SingleFamilyResidence","1190","2","3","50 Draper St #2","42.303051","-71.064292","1925","0","No","condominium"
"1 Dalton St #4601, Boston, MA 02115 - Condo For Sale","7800000","2115","SingleFamilyResidence","2663","2 / 1","2","1 Dalton St #4601","42.345665","-71.084036","2019","2","community-pool","condominium"
"15-17 Nottinghill Rd #1, Boston, MA 02135 - Condo For Sale","888000","2135","SingleFamilyResidence","1100","1 / 1","3","15-17 Nottinghill Rd #1","42.343937","-71.150225","1920","0","0.09 acres","condominium"
"44 Cottage St #3, Boston, MA 02128 - Condo For Sale","899000","2128","SingleFamilyResidence","1114","2 / 1","2","44 Cottage St #3","42.366925","-71.036068","2023","0","No","condominium"
"50-56 Broadlawn Park #316, Boston, MA 02132 - Condo For Sale","469000","2132","SingleFamilyResidence","1165","2","2","50-56 Broadlawn Park #316","42.302516","-71.164119","1974","0","community-pool","condominium"
"170 Ashmont St #15, Boston, MA 02124 - Condo For Sale","519000","2124","SingleFamilyResidence","1025","1","2","170 Ashmont St #15","42.285801","-71.064677","1899","0","0.02 acres","condominium"
"139 Forest Hills St #2, Boston, MA 02130 - Condo For Sale","685000","2130","SingleFamilyResidence","1061","1","3","139 Forest Hills St #2","42.307533","-71.102849","1905","0","No","condominium"
"234 Temple St, Boston, MA 02132 - Single-Family Home For Sale","774900","2132","SingleFamilyResidence","1666","1 / 1","4","234 Temple St","42.28414","-71.167387","1909","1","0.16 acres","single-family-home"
"52 Fayette St #1, Boston, MA 02116 - Condo For Sale","1350000","2116","SingleFamilyResidence","1130","2 / 1","2","52 Fayette St #1","42.348306","-71.068285","1875","0","0.03 acres","condominium"
"260 Bolton St #1, Boston, MA 02127 - Condo For Sale","949000","2127","SingleFamilyResidence","1093","2","3","260 Bolton St #1","42.33776","-71.046133","2017","0","No","condominium"
"465 Park Dr #D, Boston, MA 02215 - Condo For Sale","359000","2215","SingleFamilyResidence","380","1","1","465 Park Dr #D","42.3462905","-71.1044921","1910","0","0.01 acres","condominium"
"287 Stratford St, Boston, MA 02132 - Single-Family Home For Sale","1199000","2132","SingleFamilyResidence","2586","3","4","287 Stratford St","42.277814","-71.143423","1925","1","0.17 acres","single-family-home"
"43 Westchester Rd, Boston, MA 02130 - Single-Family Home For Sale","1180000","2130","SingleFamilyResidence","1859","2","3","43 Westchester Rd","42.303853","-71.127034","1940","2","0.19 acres","single-family-home"
"Open House: 11:00 AM - 12:30 PM at 43 Westchester Rd","1180000","","v","","","","","","","","","",""
"64 W Milton St, Boston, MA 02136 - Single-Family Home For Sale","799900","2136","SingleFamilyResidence","1738","1","4","64 W Milton St","42.239496","-71.139073","1910","1","0.11 acres","single-family-home"
"500 Atlantic Ave #17K, Boston, MA 02210 - Condo For Sale","4730000","2210","SingleFamilyResidence","3385","4 / 1","3","500 Atlantic Ave #17K","42.353854","-71.052002","2006","2","community-pool","condominium"
"329 Shawmut Ave #2, Boston, MA 02118 - Condo For Sale","2300000","2118","SingleFamilyResidence","1630","2 / 1","2","329 Shawmut Ave #2","42.341947","-71.071308","1890","0","No","condominium"
"170 Tremont St #1601, Boston, MA 02111 - Condo For Sale","1525000","2111","SingleFamilyResidence","1430","2","3","170 Tremont St #1601","42.353688","-71.063844","1989","1","No","condominium"
"309 E St #36, Boston, MA 02127 - Condo For Sale","1049999","2127","SingleFamilyResidence","1349","2","2","309 E St #36","42.337227","-71.049638","2015","2","No","condominium"
"360 Newbury St #501, Boston, MA 02115 - Condo For Sale","1475000","2115","SingleFamilyResidence","1215","2","2","360 Newbury St #501","42.347934","-71.087755","1918","0","No","condominium"
"1 Charles Street South #UNIT 1612, Boston, MA 02116 - Condo For Sale","1549000","2116","SingleFamilyResidence","1238","2","2","1 Charles Street South #UNIT 1612","42.351175","-71.067323","2004","1","0.03 acres","condominium"
"1 Charles St S #201, Boston, MA 02116 - Condo For Sale","1100000","2116","SingleFamilyResidence","725","1","1","1 Charles St S #201","42.351175","-71.067323","2004","1","0.02 acres","condominium"
"534-538 Commonwealth Ave #7D, Boston, MA 02215 - Condo For Sale","850000","2215","SingleFamilyResidence","864","2","2","534-538 Commonwealth Ave #7D","42.348452","-71.096547","1910","0","0.02 acres","condominium"
"72 Lubec St #24, East Boston, MA 02128 - Condo For Sale","499000","2128","SingleFamilyResidence","750","1","2","72 Lubec St #24","42.370852","-71.033341","1899","0","No","condominium"
"135 Seaport Blvd #705, Boston, MA 02210 - Condo For Sale","1695000","2210","SingleFamilyResidence","1025","2","2","135 Seaport Blvd #705","42.349975","-71.043532","2018","1","community-pool","condominium"
"1 Franklin St #2312, Boston, MA 02110 - Condo For Sale","2295000","2110","SingleFamilyResidence","1308","2","2","1 Franklin St #2312","42.355726","-71.059236","2016","1","community-pool","condominium"
"40 Traveler St #412A, Boston, MA 02118 - Condo For Sale","795000","2118","SingleFamilyResidence","577","1","1","40 Traveler St #412A","42.344318","-71.062452","2018","0","No","condominium"
"400 Stuart St #29C, Boston, MA 02116 - Condo For Sale","1950000","2116","SingleFamilyResidence","1134","2","1","400 Stuart St #29C","42.348908","-71.073778","2009","1","0.03 acres","condominium"
"20-20A Chestnut St #1, Boston, MA 02108 - Condo For Sale","7495000","2108","SingleFamilyResidence","3640","3 / 1","4","20-20A Chestnut St #1","42.357179","-71.069125","1880","1","0.04 acres","condominium"
"147 West St, Boston, MA 02136 - Land For Sale","1400000","2136","SingleFamilyResidence","0","0","0","147 West St","42.26226","-71.122608","not available","0","0.36 acres","land"
"111 Perkins St #92, Boston, MA 02130 - Home For Sale","549000","2130","SingleFamilyResidence","1130","1","2","111 Perkins St #92","42.322493","-71.115654","1963","1","community-pool","home"
"42 8th St #2103, Boston, MA 02129 - Condo For Sale","850000","2129","SingleFamilyResidence","1120","2","2","42 8th St #2103","42.375045","-71.052655","1899","1","community-pool","condominium"
"46 N Bennet St #1, Boston, MA 02113 - Condo For Sale","495000","2113","SingleFamilyResidence","587","1","1","46 N Bennet St #1","42.365653","-71.054965","1899","0","0.01 acres","condominium"
"120 Bradlee St #8, Boston, MA 02136 - Condo For Sale","265000","2136","SingleFamilyResidence","750","1","1","120 Bradlee St #8","42.27141","-71.118355","1970","0","community-pool","condominium"
"150 Seaport Blvd #6D, Boston, MA 02210 - Condo For Sale","4600000","2210","SingleFamilyResidence","1752","2 / 1","2","150 Seaport Blvd #6D","42.350754","-71.042766","2022","2","community-pool","condominium"
"90 Broadway #2C, Boston, MA 02116 - Condo For Sale","1250000","2116","SingleFamilyResidence","960","1 / 1","2","90 Broadway #2C","42.349951","-71.067077","1996","0","0.02 acres","condominium"
"246 Itasca St, Boston, MA 02126 - Single-Family Home For Sale","499000","2126","SingleFamilyResidence","936","1","3","246 Itasca St","42.272423","-71.103282","1950","0","0.14 acres","single-family-home"
"Open House: 1:00 PM - 4:00 PM at 246 Itasca St","499000","","v","","","","","","","","","",""
"46 Upton St #1, Boston, MA 02118 - Condo For Sale","1399000","2118","SingleFamilyResidence","1319","2","2","46 Upton St #1","42.342726","-71.072863","1890","0","0.03 acres","condominium"
"245 D St, Boston, MA 02127 - Land For Sale","2499990","2127","SingleFamilyResidence","0","0","0","245 D St","42.338431","-71.05103","not available","0","0.08 acres","land"
"6 Burton Ave #6, Boston, MA 02119 - Single-Family Home For Sale","1100000","2119","SingleFamilyResidence","2200","2 / 1","3","6 Burton Ave #6","42.321984","-71.080304","2023","0","0.13 acres","single-family-home"
"694 Metropolitan Ave, Boston, MA 02136 - Single-Family Home For Sale","499900","2136","SingleFamilyResidence","2074","1","4","694 Metropolitan Ave","42.262338","-71.116559","1905","0","0.15 acres","single-family-home"
"2 Howe Ter #8, Boston, MA 02125 - Condo For Sale","514999","2125","SingleFamilyResidence","1056","1 / 1","3","2 Howe Ter #8","42.310774","-71.064438","1989","0","0.03 acres","condominium"
"141 Dorchester Ave #611, South Boston, MA 02127 - Condo For Sale","1275000","2127","SingleFamilyResidence","1345","2","2","141 Dorchester Ave #611","42.334619","-71.047496","2008","1","community-pool","condominium"
"8 Whittier Pl #4H, Boston, MA 02114 - Condo For Sale","1150000","2114","SingleFamilyResidence","1515","2","3","8 Whittier Pl #4H","42.365484","-71.06728","1964","1","community-pool","condominium"
"156 Porter St #328, Boston, MA 02128 - Home For Sale","650000","2128","SingleFamilyResidence","1006","1","1","156 Porter St #328","42.371286","-71.032412","1910","1","0.02 acres","home"
"37 Harbor View St #3, Boston, MA 02125 - Condo For Sale","599000","2125","SingleFamilyResidence","1124","1","4","37 Harbor View St #3","42.317049","-71.054858","1905","0","No","condominium"
"157-165 Stanwood St, Boston, MA 02121 - Land For Sale","977000","2121","SingleFamilyResidence","0","0","0","157-165 Stanwood St","42.30717","-71.077319","not available","0","0.32 acres","land"
"45 Province St #1503, Boston, MA 02108 - Condo For Sale","1325000","2108","SingleFamilyResidence","1117","2","2","45 Province St #1503","42.357328","-71.059945","2007","1","0.03 acres","condominium"
"439 Shawmut Ave #5, Boston, MA 02118 - Condo For Sale","799999","2118","SingleFamilyResidence","781","1","1","439 Shawmut Ave #5","42.339715","-71.074881","1900","0","No","condominium"
"50 Bonair St, Boston, MA 02132 - Single-Family Home For Sale","849000","2132","SingleFamilyResidence","1380","1 / 1","3","50 Bonair St","42.292165","-71.164045","1940","1","0.18 acres","single-family-home"
"14 W Broadway #401, Boston, MA 02127 - Condo For Sale","995000","2127","SingleFamilyResidence","1435","2","2","14 W Broadway #401","42.342998","-71.056722","2018","1","No","condominium"
"5245 Washington St #9, Boston, MA 02132 - Condo For Sale","859900","2132","SingleFamilyResidence","1537","2","3","5245 Washington St #9","42.260193","-71.158846","2023","2","No","condominium"
"70 Leo M Birmingham Pkwy #105, Boston, MA 02135 - Condo For Sale","749000","2135","SingleFamilyResidence","774","1","1","70 Leo M Birmingham Pkwy #105","42.359145","-71.146848","2023","1","No","condominium"
"181 Cowper St #301, East Boston, MA 02128 - Condo For Sale","730000","2128","SingleFamilyResidence","1217","2","2","181 Cowper St #301","42.382011","-71.01328","2023","0","No","condominium"
"771 Harrison Ave #PHA, Boston, MA 02118 - Condo For Sale","1599000","2118","SingleFamilyResidence","2361","3 / 1","2","771 Harrison Ave #PHA","42.336939","-71.072993","2021","1","No","condominium"
"6 Dana Ave #6, Boston, MA 02136 - Condo For Sale","399000","2136","SingleFamilyResidence","1100","2","2","6 Dana Ave #6","42.254512","-71.125122","2002","0","0.03 acres","condominium"
"185 Maverick St #3, East Boston, MA 02128 - Condo For Sale","609900","2128","SingleFamilyResidence","798","1","2","185 Maverick St #3","42.369085","-71.036886","2023","0","0.02 acres","condominium"
"270 E St #3, Boston, MA 02127 - Condo For Sale","650000","2127","SingleFamilyResidence","750","1","2","270 E St #3","42.336443","-71.051067","1920","0","community-pool","condominium"
"97 Anderer Ln #207, Boston, MA 02132 - Condo For Sale","725000","2132","SingleFamilyResidence","1200","2","2","97 Anderer Ln #207","42.293737","-71.169035","1989","1","0.03 acres","condominium"
"15 North Beacon St #208, Boston, MA 02134 - Condo For Sale","455000","2134","SingleFamilyResidence","557","1","1","15 North Beacon St #208","42.35414","-71.137935","1989","1","community-pool","condominium"
"35-51 Walnut St, Boston, MA 02136 - Land For Sale","150000","2136","SingleFamilyResidence","0","0","0","35-51 Walnut St","42.25267","-71.12141","not available","0","0.10 acres","land"
"99 Sumner St #314, Boston, MA 02128 - Condo For Sale","699000","2128","SingleFamilyResidence","716","1","1","99 Sumner St #314","42.36981","-71.042368","2020","1","No","condominium"
"20 Penniman Rd #P2, Boston, MA 02134 - Home For Sale","999000","2134","SingleFamilyResidence","964","2","2","20 Penniman Rd #P2","42.355734","-71.136135","2018","1","No","home"
"5 Stillman Pl #3, Boston, MA 02113 - Home For Sale","529000","2113","SingleFamilyResidence","410","1","1","5 Stillman Pl #3","42.364178","-71.057732","1900","1","community-pool","home"
"36 Southbourne Rd, Boston, MA 02130 - Single-Family Home For Sale","749000","2130","SingleFamilyResidence","1354","1","3","36 Southbourne Rd","42.290323","-71.116595","1910","1","0.07 acres","single-family-home"
"691 Massachusetts Ave #203, Boston, MA 02118 - Condo For Sale","679000","2118","SingleFamilyResidence","687","1","1","691 Massachusetts Ave #203","42.335241","-71.075822","2010","0","No","condominium"
"893 E 2nd St #4, Boston, MA 02127 - Condo For Sale","1675000","2127","SingleFamilyResidence","2421","2 / 1","3","893 E 2nd St #4","42.337381","-71.027344","2016","2","No","condominium"
"4 Battery Wharf #4608, Boston, MA 02109 - Condo For Sale","1395000","2109","SingleFamilyResidence","1021","1 / 1","1","4 Battery Wharf #4608","42.367033","-71.050171","2008","1","0.02 acres","condominium"
"2 Cottage St #2, Boston, MA 02127 - Condo For Sale","669000","2127","SingleFamilyResidence","644","1","1","2 Cottage St #2","42.333625","-71.05342","2016","1","No","condominium"
"15 June St #15, Boston, MA 02131 - Condo For Sale","929000","2131","SingleFamilyResidence","2657","3 / 1","3","15 June St #15","42.276376","-71.135352","2019","2","No","condominium"
"30 Norton St, Boston, MA 02125 - Single-Family Home For Sale","549900","2125","SingleFamilyResidence","1316","1 / 1","3","30 Norton St","42.306822","-71.068743","1910","2","0.07 acres","single-family-home"
"28 Telegraph St #A, South Boston, MA 02127 - Condo For Sale","1175000","2127","SingleFamilyResidence","1557","3 / 1","3","28 Telegraph St #A","42.333083","-71.049614","1875","0","0.03 acres","condominium"
"11 Stimson St, Boston, MA 02132 - Single-Family Home For Sale","675000","2132","SingleFamilyResidence","1556","2","4","11 Stimson St","42.259925","-71.157268","1945","1","0.13 acres","single-family-home"
"44 Prince St #503, Boston, MA 02113 - Home For Sale","1399000","2113","SingleFamilyResidence","1009","2","2","44 Prince St #503","42.364429","-71.055023","2005","2","0.02 acres","home"
"760 E Broadway #101, Boston, MA 02127 - Condo For Sale","1799000","2127","SingleFamilyResidence","2233","3","3","760 E Broadway #101","42.335779","-71.034993","1875","2","community-pool","condominium"
"234 Causeway St #720, Boston, MA 02114 - Condo For Sale","799000","2114","SingleFamilyResidence","915","1","1","234 Causeway St #720","42.366688","-71.059341","1899","0","0.02 acres","condominium"
"151 Beacon St #3, Boston, MA 02116 - Condo For Sale","3499000","2116","SingleFamilyResidence","2023","2 / 1","3","151 Beacon St #3","42.3545","-71.07501","1860","1","No","condominium"
"606 E 4th St #104, South Boston, MA 02127 - Condo For Sale","875000","2127","SingleFamilyResidence","1103","2","2","606 E 4th St #104","42.334898","-71.04047","2011","1","No","condominium"
"70A Franklin St #70A, Boston, MA 02134 - Condo For Sale","799000","2134","SingleFamilyResidence","1620","2","2","70A Franklin St #70A","42.358086","-71.133268","1986","0","0.04 acres","condominium"
"7 Glenmore St, Boston, MA 02126 - Single-Family Home For Sale","249000","2126","SingleFamilyResidence","1300","2","3","7 Glenmore St","42.272503","-71.077941","2024","0","0.12 acres","single-family-home"
"261 Marlborough St #1, Boston, MA 02116 - Condo For Sale","735000","2116","SingleFamilyResidence","710","1","1","261 Marlborough St #1","42.351999","-71.082707","1930","0","0.02 acres","condominium"
"151 Tremont St #UL-309, Boston, MA 02111 - Land For Sale","75000","2111","SingleFamilyResidence","0","0","0","151 Tremont St #UL-309","42.3545","-71.06338","not available","0","No","land"
"9 Hawthorne Pl #7O, Boston, MA 02114 - Condo For Sale","569000","2114","SingleFamilyResidence","828","1","1","9 Hawthorne Pl #7O","42.36427","-71.06574","1967","0","0.02 acres","condominium"
"593 Walk Hill St, Boston, MA 02126 - Single-Family Home For Sale","439999","2126","SingleFamilyResidence","1502","1 / 1","3","593 Walk Hill St","42.281334","-71.098281","1950","1","0.09 acres","single-family-home"
"3 Melville Ave #6, Boston, MA 02124 - Condo For Sale","735000","2124","SingleFamilyResidence","1145","2","2","3 Melville Ave #6","42.29325","-71.070436","2022","0","No","condominium"
"580 Washington St #3C, Boston, MA 02111 - Home For Sale","1650000","2111","SingleFamilyResidence","1420","2","2","580 Washington St #3C","42.353249","-71.062333","2013","1","No","home"
"240 Devonshire St #5212, Boston, MA 02110 - Condo For Sale","4475000","2110","SingleFamilyResidence","1989","3","3","240 Devonshire St #5212","42.35458","-71.057112","2023","1","community-pool","condominium"
"50 Liberty Dr #3B,3C, Boston, MA 02210 - Condo For Sale","9950000","2210","SingleFamilyResidence","3696","4 / 2","4","50 Liberty Dr #3B,3C","42.354408","-71.044464","2018","3","No","condominium"
"44 Worley St, Boston, MA 02132 - Single-Family Home For Sale","1380000","2132","SingleFamilyResidence","3398","4","4","44 Worley St","42.292262","-71.162847","1880","2","0.21 acres","single-family-home"
"4 Battery Wharf #4610, Boston, MA 02109 - Condo For Sale","2325000","2109","SingleFamilyResidence","1395","2","2","4 Battery Wharf #4610","42.367033","-71.050171","2008","2","No","condominium"
"380 Harrison Ave #1006, Boston, MA 02118 - Condo For Sale","1090000","2118","SingleFamilyResidence","809","1 / 1","1","380 Harrison Ave #1006","42.343847","-71.063695","2021","0","community-pool","condominium"
"9R Trenton St #4, East Boston, MA 02128 - Condo For Sale","619000","2128","SingleFamilyResidence","1150","2","3","9R Trenton St #4","42.377851","-71.038796","2017","1","No","condominium"
"17 Elizabeth St, Boston, MA 02126 - Single-Family Home For Sale","700000","2126","SingleFamilyResidence","2023","1 / 1","4","17 Elizabeth St","42.279567","-71.087824","1920","0","0.14 acres","single-family-home"
"38 Pier 7 #38, Boston, MA 02129 - Condo For Sale","1799000","2129","SingleFamilyResidence","2358","2","3","38 Pier 7 #38","42.373967","-71.049618","1987","2","community-pool","condominium"
"63 Gates St #1, Boston, MA 02127 - Condo For Sale","699000","2127","SingleFamilyResidence","995","2","2","63 Gates St #1","42.331763","-71.048407","1910","0","No","condominium"
"3 Melville Ave #5, Boston, MA 02124 - Condo For Sale","698000","2124","SingleFamilyResidence","1093","2 / 1","2","3 Melville Ave #5","42.29325","-71.070436","2022","0","No","condominium"
"1199-1203 Blue Hill Ave, Boston, MA 02126 - Land For Sale","1999999","2126","SingleFamilyResidence","0","0","0","1199-1203 Blue Hill Ave","42.28351","-71.091949","not available","0","0.08 acres","land"
"45 Province St #2404, Boston, MA 02108 - Condo For Sale","5700000","2108","SingleFamilyResidence","3319","3 / 1","3","45 Province St #2404","42.357328","-71.059945","2009","2","community-pool","condominium"
"55 Lagrange St #1204, Boston, MA 02116 - Condo For Sale","1825000","2116","SingleFamilyResidence","1041","2","2","55 Lagrange St #1204","42.351762","-71.064128","2022","0","community-pool","condominium"
"71 W Selden St #6, Boston, MA 02126 - Condo For Sale","315000","2126","SingleFamilyResidence","877","1","3","71 W Selden St #6","42.278387","-71.08527","1980","0","community-pool","condominium"
"55 Lagrange St #910, Boston, MA 02116 - Condo For Sale","859000","2116","SingleFamilyResidence","579","1","0","55 Lagrange St #910","42.351762","-71.064128","2022","0","community-pool","condominium"
"55 Lagrange St #1201, Boston, MA 02116 - Condo For Sale","860000","2116","SingleFamilyResidence","537","1","0","55 Lagrange St #1201","42.351762","-71.064128","2022","0","community-pool","condominium"
"55 Lagrange St #1403, Boston, MA 02116 - Condo For Sale","955000","2116","SingleFamilyResidence","511","1","1","55 Lagrange St #1403","42.351762","-71.064128","2022","0","community-pool","condominium"
"55 Lagrange St #PH21C, Boston, MA 02116 - Condo For Sale","2529000","2116","SingleFamilyResidence","1218","2","2","55 Lagrange St #PH21C","42.351762","-71.064128","2022","0","community-pool","condominium"
"55 Lagrange St #1902, Boston, MA 02116 - Condo For Sale","2600000","2116","SingleFamilyResidence","1240","2","2","55 Lagrange St #1902","42.351762","-71.064128","2022","0","community-pool","condominium"
"520 E Broadway #202, Boston, MA 02127 - Condo For Sale","2695000","2127","SingleFamilyResidence","2958","4 / 1","4","520 E Broadway #202","42.33571","-71.043464","1890","2","No","condominium"
"520 E Broadway #101, Boston, MA 02127 - Condo For Sale","2595000","2127","SingleFamilyResidence","3227","3 / 1","3","520 E Broadway #101","42.33571","-71.043464","1890","2","No","condominium"
"1152 Bennington St #1, Boston, MA 02128 - Condo For Sale","619900","2128","SingleFamilyResidence","1410","2","3","1152 Bennington St #1","42.38877","-71.000536","2020","0","No","condominium"
"1662 Commonwealth Ave #12, Boston, MA 02135 - Condo For Sale","375000","2135","SingleFamilyResidence","478","1","1","1662 Commonwealth Ave #12","42.341766","-71.144651","1925","0","0.01 acres","condominium"
"111 Perkins St #54, Boston, MA 02130 - Home For Sale","315000","2130","SingleFamilyResidence","805","1","1","111 Perkins St #54","42.322493","-71.115654","1963","1","community-pool","home"
"406 Marlborough St #4, Boston, MA 02115 - Home For Sale","1849000","2115","SingleFamilyResidence","1461","2","2","406 Marlborough St #4","42.350079","-71.088411","1900","1","0.03 acres","home"
"280 Beacon St #1, Boston, MA 02116 - Condo For Sale","749900","2116","SingleFamilyResidence","685","1","1","280 Beacon St #1","42.353311","-71.081208","1929","1","No","condominium"
"123 Norwell St, Boston, MA 02121 - Single-Family Home For Sale","819900","2121","SingleFamilyResidence","2400","3 / 1","4","123 Norwell St","42.298185","-71.078871","1900","0","0.12 acres","single-family-home"
"234 Causeway St #702, Boston, MA 02114 - Condo For Sale","625000","2114","SingleFamilyResidence","928","1","1","234 Causeway St #702","42.366688","-71.059341","1899","0","0.02 acres","condominium"
"234 Causeway St #703, Boston, MA 02114 - Condo For Sale","750000","2114","SingleFamilyResidence","928","1","1","234 Causeway St #703","42.366688","-71.059341","1899","0","0.02 acres","condominium"
"10 Hancock St #3, Boston, MA 02129 - Condo For Sale","875000","2129","SingleFamilyResidence","981","2","2","10 Hancock St #3","42.378394","-71.062585","1899","0","No","condominium"
"234 Causeway St #1111, Boston, MA 02114 - Condo For Sale","700000","2114","SingleFamilyResidence","693","1","1","234 Causeway St #1111","42.366688","-71.059341","1899","0","0.02 acres","condominium"
"210 South St #51, Boston, MA 02111 - Condo For Sale","1099000","2111","SingleFamilyResidence","1730","2","2","210 South St #51","42.34986","-71.057298","1920","0","0.04 acres","condominium"
"319 Marlborough St #5, Boston, MA 02116 - Condo For Sale","1795000","2116","SingleFamilyResidence","1153","2","2","319 Marlborough St #5","42.351476","-71.084722","1890","1","0.03 acres","condominium"
"1950 Washington St #5C, Boston, MA 02118 - Condo For Sale","1289000","2118","SingleFamilyResidence","1403","2 / 1","2","1950 Washington St #5C","42.334123","-71.079702","2021","1","No","condominium"
"22 Agawam St, Boston, MA 02122 - Single-Family Home For Sale","749000","2122","SingleFamilyResidence","1485","2 / 1","4","22 Agawam St","42.294875","-71.054488","1920","2","0.07 acres","single-family-home"
"106 13th St #240, Boston, MA 02129 - Condo For Sale","789000","2129","SingleFamilyResidence","1156","2","2","106 13th St #240","42.377678","-71.050473","1920","2","No","condominium"
"1950 Washington St #5J, Boston, MA 02118 - Condo For Sale","1299000","2118","SingleFamilyResidence","1654","2 / 1","2","1950 Washington St #5J","42.334116","-71.079592","2021","1","No","condominium"
"480 W Broadway #105, Boston, MA 02127 - Condo For Sale","1100000","2127","SingleFamilyResidence","1800","2 / 1","2","480 W Broadway #105","42.33573","-71.045646","2023","1","No","condominium"
"46 Hartford St, Boston, MA 02125 - Single-Family Home For Sale","950000","2125","SingleFamilyResidence","3484","4 / 1","6","46 Hartford St","42.31547","-71.072828","1900","1","0.11 acres","single-family-home"
"63 Parsons St #1, Boston, MA 02135 - Condo For Sale","699000","2135","SingleFamilyResidence","1011","1 / 1","2","63 Parsons St #1","42.352032","-71.154367","1920","1","0.02 acres","condominium"
"90 Whitcomb Ave, Boston, MA 02130 - Single-Family Home For Sale","1089000","2130","SingleFamilyResidence","1630","1 / 1","4","90 Whitcomb Ave","42.303323","-71.130624","1936","1","0.14 acres","single-family-home"
"8 Whittier Pl #4A, Boston, MA 02114 - Home For Sale","509000","2114","SingleFamilyResidence","935","1","1","8 Whittier Pl #4A","42.365492","-71.067472","1964","0","community-pool","home"
"112 Pinckney St #41, Boston, MA 02114 - Condo For Sale","729000","2114","SingleFamilyResidence","701","1","1","112 Pinckney St #41","42.358691","-71.072052","not available","0","No","condominium"
"500 Atlantic Ave #18C, Boston, MA 02210 - Condo For Sale","1395000","2210","SingleFamilyResidence","1132","1 / 1","2","500 Atlantic Ave #18C","42.353854","-71.052002","2006","1","0.03 acres","condominium"
"9 Monument St #R, Boston, MA 02129 - Condo For Sale","1875000","2129","SingleFamilyResidence","1908","3 / 1","4","9 Monument St #R","42.377374","-71.060024","2023","0","No","condominium"
"427 Quincy St, Dorchester, MA 02125 - Land For Sale","999000","2125","SingleFamilyResidence","0","0","0","427 Quincy St","42.309774","-71.067395","not available","0","0.34 acres","land"
"74 Burt St #201, Dorchester Center, MA 02124 - Condo For Sale","585000","2124","SingleFamilyResidence","1146","2","2","74 Burt St #201","42.283696","-71.070414","2023","1","0.12 acres","condominium"
"74 Burt St #202, Dorchester Center, MA 02124 - Condo For Sale","745000","2124","SingleFamilyResidence","1439","2","3","74 Burt St #202","42.283696","-71.070414","2023","2","0.12 acres","condominium"
"188 Brookline Ave #25D, Boston, MA 02215 - Condo For Sale","1390000","2215","SingleFamilyResidence","762","1","1","188 Brookline Ave #25D","42.343873","-71.101934","2018","0","community-pool","condominium"
"30 Dighton St #1, Brighton, MA 02135 - Condo For Sale","1289000","2135","SingleFamilyResidence","2153","3","3","30 Dighton St #1","42.348184","-71.154847","2023","0","No","condominium"
"50 Draper St #3, Boston, MA 02122 - Condo For Sale","669000","2122","SingleFamilyResidence","1190","2","3","50 Draper St #3","42.303051","-71.064292","1925","0","No","condominium"
"73 Mount Vernon St, Boston, MA 02108 - Single-Family Home For Sale","4229000","2108","SingleFamilyResidence","2303","2 / 1","3","73 Mount Vernon St","42.358479","-71.066793","1899","0","No","single-family-home"
"100 Shawmut Ave #705, Boston, MA 02118 - Condo For Sale","924900","2118","SingleFamilyResidence","755","1","1","100 Shawmut Ave #705","42.346582","-71.065599","2021","0","No","condominium"
"50 Commonwealth Ave #304, Boston, MA 02116 - Condo For Sale","1495000","2116","SingleFamilyResidence","1210","2","2","50 Commonwealth Ave #304","42.352543","-71.073954","1900","0","0.03 acres","condominium"
"370 Sumner St #2, Boston, MA 02128 - Condo For Sale","799900","2128","SingleFamilyResidence","1081","2","2","370 Sumner St #2","42.366721","-71.034553","1900","0","0.04 acres","condominium"
"566 Commonwealth Ave #407, Boston, MA 02215 - Home For Sale","535000","2215","SingleFamilyResidence","851","1","1","566 Commonwealth Ave #407","42.348723","-71.098858","1968","1","0.69 acres","home"
"65-69 Nightingale St #4B, Boston, MA 02124 - Condo For Sale","325000","2124","SingleFamilyResidence","913","1","2","65-69 Nightingale St #4B","42.295399","-71.083812","1900","0","0.02 acres","condominium"
"80-88 Wales St #3, Boston, MA 02124 - Condo For Sale","629000","2124","SingleFamilyResidence","1300","2","3","80-88 Wales St #3","42.294819","-71.083548","2023","0","No","condominium"
"80-88 Wales St #4, Boston, MA 02124 - Condo For Sale","629000","2124","SingleFamilyResidence","1300","2","3","80-88 Wales St #4","42.294819","-71.083548","2023","0","No","condominium"
"2430 Beacon St #202, Chestnut Hill, MA 02467 - Condo For Sale","1295000","2467","SingleFamilyResidence","1348","2 / 1","2","2430 Beacon St #202","42.33223","-71.154553","1887","0","7.50 acres","condominium"
"Open House: 10:30 AM - 12:00 PM at 2430 Beacon St #202","1295000","","v","","","","","","","","","",""
"121 Portland St #902, Boston, MA 02114 - Condo For Sale","1250000","2114","SingleFamilyResidence","921","1 / 1","1","121 Portland St #902","42.363584","-71.060502","2017","1","No","condominium"
"273 Border St #2B, East Boston, MA 02128 - Condo For Sale","799000","2128","SingleFamilyResidence","1028","2","2","273 Border St #2B","42.377241","-71.039664","1900","0","No","condominium"
"135 Seaport Blvd #1612, Boston, MA 02210 - Condo For Sale","849000","2210","SingleFamilyResidence","495","1","0","135 Seaport Blvd #1612","42.350824","-71.043665","2020","1","community-pool","condominium"
"14 W Broadway #803, Boston, MA 02127 - Condo For Sale","1099000","2127","SingleFamilyResidence","1080","2","2","14 W Broadway #803","42.342998","-71.056722","2018","2","No","condominium"
"135 Seaport Blvd #1218, Boston, MA 02210 - Condo For Sale","849000","2210","SingleFamilyResidence","506","1","0","135 Seaport Blvd #1218","42.350824","-71.043665","2020","1","community-pool","condominium"
"64 Alpine St #103, Boston, MA 02119 - Condo For Sale","425000","2119","SingleFamilyResidence","470","1","0","64 Alpine St #103","42.325164","-71.085442","2023","0","0.13 acres","condominium"
"40 Traveler St #806, Boston, MA 02118 - Condo For Sale","2100000","2118","SingleFamilyResidence","1327","2 / 1","2","40 Traveler St #806","42.344318","-71.062452","2017","1","No","condominium"
"1000 Centre St #13, Jamaica Plain, MA 02130 - Condo For Sale","599000","2130","SingleFamilyResidence","1205","1","2","1000 Centre St #13","42.306085","-71.123765","1885","1","community-pool","condominium"
"19-21 Moseley #4, Boston, MA 02125 - Condo For Sale","899000","2125","SingleFamilyResidence","1455","2","2","19-21 Moseley #4","42.319614","-71.055066","1910","0","No","condominium"
"19-21 Moseley #3, Boston, MA 02125 - Condo For Sale","909000","2125","SingleFamilyResidence","1463","2","2","19-21 Moseley #3","42.319614","-71.055066","1910","0","No","condominium"
"71 Webster St #3, Boston, MA 02128 - Condo For Sale","565000","2128","SingleFamilyResidence","718","1","2","71 Webster St #3","42.367038","-71.037995","1910","0","No","condominium"
"8 Oakhurst St #2, Boston, MA 02124 - Condo For Sale","529900","2124","SingleFamilyResidence","1136","1","3","8 Oakhurst St #2","42.287969","-71.082421","2023","0","No","condominium"
"69 Wilmington Ave, Boston, MA 02124 - Single-Family Home For Sale","749900","2124","SingleFamilyResidence","2190","1 / 1","3","69 Wilmington Ave","42.279186","-71.076857","1930","1","0.10 acres","single-family-home"
"59 Commercial Wharf #7, Boston, MA 02110 - Home For Sale","1995000","2110","SingleFamilyResidence","1652","2","2","59 Commercial Wharf #7","42.36209","-71.049922","1832","1","0.04 acres","home"
"55 Downer Ave #2, Boston, MA 02125 - Condo For Sale","599900","2125","SingleFamilyResidence","1025","2","2","55 Downer Ave #2","42.312084","-71.061918","1905","0","No","condominium"
"9 Downer Ct, Boston, MA 02122 - Land For Sale","799000","2122","SingleFamilyResidence","0","0","0","9 Downer Ct","42.310077","-71.064245","not available","0","0.19 acres","land"
"67 Stearns Rd, Boston, MA 02132 - Single-Family Home For Sale","879900","2132","SingleFamilyResidence","1930","2 / 1","4","67 Stearns Rd","42.267566","-71.154298","1988","0","0.13 acres","single-family-home"
"101 Saratoga St #1, Boston, MA 02128 - Condo For Sale","599900","2128","SingleFamilyResidence","837","2","2","101 Saratoga St #1","42.376562","-71.036011","1930","0","No","condominium"
"16 Cook St #2, Boston, MA 02129 - Condo For Sale","999900","2129","SingleFamilyResidence","1300","3","3","16 Cook St #2","42.380487","-71.064193","1875","0","No","condominium"
"480 W Broadway #201, Boston, MA 02127 - Condo For Sale","800000","2127","SingleFamilyResidence","998","1 / 1","2","480 W Broadway #201","42.33573","-71.045646","2023","1","No","condominium"
"34 Alpha Rd #1, Dorchester Center, MA 02124 - Condo For Sale","614900","2124","SingleFamilyResidence","1094","2","2","34 Alpha Rd #1","42.295667","-71.068881","1906","0","No","condominium"
"19 Millstone Rd, Boston, MA 02136 - Single-Family Home For Sale","629000","2136","SingleFamilyResidence","1493","2","4","19 Millstone Rd","42.233768","-71.134059","1900","0","0.11 acres","single-family-home"
"189 Trenton St #3, Boston, MA 02128 - Condo For Sale","549900","2128","SingleFamilyResidence","770","1","2","189 Trenton St #3","42.380426","-71.031888","1900","0","community-pool","condominium"
"89 Revere St, Boston, MA 02114 - Single-Family Home For Sale","3800000","2114","SingleFamilyResidence","2704","4 / 1","5","89 Revere St","42.359608","-71.069832","1899","0","0.02 acres","multi-story"
"34 Alpha Rd #3, Dorchester Center, MA 02124 - Condo For Sale","599000","2124","SingleFamilyResidence","1007","2","2","34 Alpha Rd #3","42.295667","-71.068881","1906","0","No","condominium"
